element,id,addr:city,addr:housenumber,addr:postcode,addr:state,addr:street,branch,brand,brand:wikidata,name,opening_hours,payment:apple_pay,payment:credit_cards,payment:ebt,payment:google_pay,payment:mastercard,payment:snap,payment:visa,phone,ref,shop,toilets,toilets:access,toilets:unisex,website,addr:unit,check_date,diet:gluten_free,diet:organic,diet:vegan,diet:vegetarian,short_name,dispensing,atm,fast_food,fuel:propane,source,cuisine,contact:facebook,email,store_ref,addr:country,wheelchair,created_by,delivery,payment:cash,payment:debit_cards,contact:website,toilets:wheelchair,fixme,addr:county,alt_name,organic,payment:coins,diet:local,operator,amenity,payment:cards,contact:instagram,fuel:diesel,fuel:octane_87,fuel:octane_89,fuel:octane_91,note,indoor_seating,name:en,name:zh-Hans,name:zh-Hant,air_conditioning,currency:USD,second_hand,level,old_name,official_name,alt_name:ko,name:ko,pastry_shop,check_date:opening_hours,description,internet_access,name:nl,start_date,outdoor_seating,smoking,drink:beer,brand:wikipedia,entrance,stroller,payment:app:walmart,payment:samsung_pay,ref:walmart,sensory_friendly:accommodation,sensory_friendly:conditional,payment:contactless,drink:wine,payment:american_express,payment:cheque,payment:discover_card,payment:notes,payment:wic,source:addr,brand:website,healthcare,payment:visa_debit,payment:visa_electron,currency:MXN,opening_hours:signed,designation,street_vendor,takeaway,mapillary,level:ref,drive_through,building,toilets:num_chambers,opening_hours:covid19,name:es,building:levels,building:use,cash_withdrawal,image,mobile,name:zh,contact:twitter,name:ja,website:menu,name:zh-Latn-pinyin,contact:email,parking,addr:housename,currency:XBT,payment:lightning,payment:lightning:operator,payment:lightning_contactless,payment:onchain,instagram,payment:paypal,fax,building_type,sangis:OBJECTID,sangis:TYPE,height,landuse,building:levels:underground,roof:levels,internet_access:fee,building:type,leisure,changing_table,roof:shape,layer,internet_access:ssid,source_ref,operator:wikidata,wikidata,wikipedia,indoor,room,fuel:diesel_2,fuel:e85,lottery,access,private,wikimedia_commons,diet:halal,diet:mediterranean,car_wash,was:amenity,payment:diners_club,type,opportunity_category,lon,lat
node,273593057,La Jolla,8657,92037,CA,Villa La Jolla Drive,La Jolla Village Square,Ralphs,Q3929820,Ralphs,Mo-Su 05:00-01:00,yes,yes,yes,yes,yes,yes,yes,+1 858-597-0108;+1 858-597-1550,108,supermarket,yes,customers,no,https://www.ralphs.com/stores/grocery/ca/la-jolla/la-jolla-village-square/703/00108,,,,,,,,,,,,,,,,,,,,,,,,,,,,,,,,,,,,,,,,,,,,,,,,,,,,,,,,,,,,,,,,,,,,,,,,,,,,,,,,,,,,,,,,,,,,,,,,,,,,,,,,,,,,,,,,,,,,,,,,,,,,,,,,,,,,,,,,,,,,,,,,,,groceries,-117.232061,32.8663098
node,273593515,La Jolla,8657,92037,CA,Villa La Jolla Drive,La Jolla,Trader Joe's,Q688825,Trader Joe's,Mo-Su 08:00-21:00,,,,,,,,+1 858-546-8629,20,supermarket,yes,,,https://locations.traderjoes.com/ca/la-jolla/20/,210,,,,,,,,,,,,,,,,,,,,,,,,,,,,,,,,,,,,,,,,,,,,,,,,,,,,,,,,,,,,,,,,,,,,,,,,,,,,,,,,,,,,,,,,,,,,,,,,,,,,,,,,,,,,,,,,,,,,,,,,,,,,,,,,,,,,,,,,,,,,,,,,,groceries,-117.232406,32.865636
node,274193121,San Diego,4439,92117,CA,Genesee Avenue,,Sprouts Farmers Market,Q7581369,Sprouts Farmers Market,Mo-Su 07:00-22:00,,,,,,,,+1 858-268-2400,234,supermarket,yes,permissive,no,https://www.sprouts.com/store/ca/san-diego/san-diego-genesee-ave/,,2025-03-24,yes,yes,yes,yes,Sprouts,,,,,,,,,,,,,,,,,,,,,,,,,,,,,,,,,,,,,,,,,,,,,,,,,,,,,,,,,,,,,,,,,,,,,,,,,,,,,,,,,,,,,,,,,,,,,,,,,,,,,,,,,,,,,,,,,,,,,,,,,,,,,,,,,,,,,,,,,,,groceries,-117.1837196,32.8242878
node,316542113,San Diego,1020,92103,CA,University Avenue,Hillcrest,Ralphs,Q3929820,Ralphs,Mo-Su 05:00-01:00,,,,,,,,+1 619-298-2931,,supermarket,,,,https://www.ralphs.com/stores/grocery/ca/san-diego/hillcrest/703/00051,,,,,,,,yes,,,,,,,,,,,,,,,,,,,,,,,,,,,,,,,,,,,,,,,,,,,,,,,,,,,,,,,,,,,,,,,,,,,,,,,,,,,,,,,,,,,,,,,,,,,,,,,,,,,,,,,,,,,,,,,,,,,,,,,,,,,,,,,,,,,,,,,,,,groceries,-117.1546337,32.749375
node,339167460,San Diego,1670,92101-2522,CA,Kettner Boulevard,,7-Eleven,Q259340,7-Eleven,,,,,,,,,+1 619-615-0779,33458,convenience,,,,https://www.7-eleven.com/locations/ca/san-diego/1670-kettner-blvd-33458,,,,,,,,,yes,yes,yes,,,,,,,,,,,,,,,,,,,,,,,,,,,,,,,,,,,,,,,,,,,,,,,,,,,,,,,,,,,,,,,,,,,,,,,,,,,,,,,,,,,,,,,,,,,,,,,,,,,,,,,,,,,,,,,,,,,,,,,,,,,,,,,,,,,,,,,groceries,-117.169481,32.7221378
node,365319358,Chula Vista,720,91910,CA,3rd Avenue,,Albertsons,Q2831861,Albertsons,,,,,,,,,+1 619-498-5160,,supermarket,,,,https://local.albertsons.com/ca/chula-vista/720-3rd-ave.html,,,,,,,,,,,,SanGIS Business Sites Public Domain (http://www.sangis.org/),,,,,,,,,,,,,,,,,,,,,,,,,,,,,,,,,,,,,,,,,,,,,,,,,,,,,,,,,,,,,,,,,,,,,,,,,,,,,,,,,,,,,,,,,,,,,,,,,,,,,,,,,,,,,,,,,,,,,,,,,,,,,,,,,,,,,,groceries,-117.075597,32.6264844
node,365319366,San Diego,4315,92109,CA,Mission Boulevard,PB Marketplace,Ralphs,Q3929820,Ralphs,Mo-Fr 09:00-21:00;Sa-Su 10:00-18:00,,,,,,,,+1 858-273-2108,70300207,supermarket,,,,https://www.ralphs.com/stores/grocery/ca/san-diego/pb-marketplace/703/00207,,,,,,,,,,,,SanGIS Business Sites Public Domain (http://www.sangis.org/),,,,,,,,,,,,,,,,,,,,,,,,,,,,,,,,,,,,,,,,,,,,,,,,,,,,,,,,,,,,,,,,,,,,,,,,,,,,,,,,,,,,,,,,,,,,,,,,,,,,,,,,,,,,,,,,,,,,,,,,,,,,,,,,,,,,,,groceries,-117.254304,32.7942263
node,365319369,,,,,,,,,Minute Mart,,,,,,,,,,,supermarket,,,,,,,,,,,,,,,,SanGIS Business Sites Public Domain (http://www.sangis.org/),,,,,,,,,,,,,,,,,,,,,,,,,,,,,,,,,,,,,,,,,,,,,,,,,,,,,,,,,,,,,,,,,,,,,,,,,,,,,,,,,,,,,,,,,,,,,,,,,,,,,,,,,,,,,,,,,,,,,,,,,,,,,,,,,,,,,,groceries,-117.086522,32.757146
node,365319372,,,,,,,Smart & Final,Q7543916,Smart & Final,,,,,,,,,,,supermarket,,,,,,,,,,,,,,,,SanGIS Business Sites Public Domain (http://www.sangis.org/),,,,,,,,,,,,,,,,,,,,,,,,,,,,,,,,,,,,,,,,,,,,,,,,,,,,,,,,,,,,,,,,,,,,,,,,,,,,,,,,,,,,,,,,,,,,,,,,,,,,,,,,,,,,,,,,,,,,,,,,,,,,,,,,,,,,,,groceries,-117.140395,32.7481139
node,365319375,,,,,,,,,Foodland Iga #3,,,,,,,,,,,supermarket,,,,,,,,,,,,,,,,SanGIS Business Sites Public Domain (http://www.sangis.org/),,,,,,,,,,,,,,,,,,,,,,,,,,,,,,,,,,,,,,,,,,,,,,,,,,,,,,,,,,,,,,,,,,,,,,,,,,,,,,,,,,,,,,,,,,,,,,,,,,,,,,,,,,,,,,,,,,,,,,,,,,,,,,,,,,,,,,groceries,-117.085641,32.720976
node,365319386,San Diego,8955,92126,CA,Mira Mesa Boulevard,,Seafood City,Q7440359,Seafood City,08:00-21:00,,,,,,,,,,supermarket,,,,,,,,,,,,,,,,SanGIS Business Sites Public Domain (http://www.sangis.org/),asian,,,,,,,,,,,,,,,,,,,,,,,,,,,,,,,,,,,,,,,,,,,,,,,,,,,,,,,,,,,,,,,,,,,,,,,,,,,,,,,,,,,,,,,,,,,,,,,,,,,,,,,,,,,,,,,,,,,,,,,,,,,,,,,,,,,,,groceries,-117.1315685,32.9137858
node,365319431,,9326,92126,,Mira Mesa Boulevard,Seafood Supermarket,Lucky,Q6698032,Lucky,Mo-Su 08:00-20:30,,,,,,,,+1 858-586-7979,,supermarket,,,,https://luckyseafoodmarket.com/,,,,,,,,,,,,SanGIS Business Sites Public Domain (http://www.sangis.org/),,https://facebook.com/p/Lucky-Seafood-Market-San-Diego-CA-100085101783013,luckyseafoodsandiego@gmail.com,,,,,,,,,,,,,,,,,,,,,,,,,,,,,,,,,,,,,,,,,,,,,,,,,,,,,,,,,,,,,,,,,,,,,,,,,,,,,,,,,,,,,,,,,,,,,,,,,,,,,,,,,,,,,,,,,,,,,,,,,,,,,,,,,,,groceries,-117.12427,32.9189539
node,365319435,,,,,,,,,Carnival Supermarket,,,,,,,,,,,supermarket,,,,,,,,,,,,,,,,SanGIS Business Sites Public Domain (http://www.sangis.org/),,,,,,,,,,,,,,,,,,,,,,,,,,,,,,,,,,,,,,,,,,,,,,,,,,,,,,,,,,,,,,,,,,,,,,,,,,,,,,,,,,,,,,,,,,,,,,,,,,,,,,,,,,,,,,,,,,,,,,,,,,,,,,,,,,,,,,groceries,-117.160587,32.808766
node,365319438,,,,,,,,,Gelson's,,,,,,,,,,,supermarket,,,,,,2024-10-20,,,,,,,,,,SanGIS Business Sites Public Domain (http://www.sangis.org/),,,,,,,,,,,,,,,,,,,,,,,,,,,,,,,,,,,,,,,,,,,,,,,,,,,,,,,,,,,,,,,,,,,,,,,,,,,,,,,,,,,,,,,,,,,,,,,,,,,,,,,,,,,,,,,,,,,,,,,,,,,,,,,,,,,,,,groceries,-117.2491477,32.9790506
node,365319447,Chula Vista,2250,91915,CA,Otay Lakes Road,,Vons,Q7941609,Vons,,,,,,,,,+1 619-656-0406,,supermarket,,,,https://local.vons.com/ca/chula-vista/2250-otay-lakes-rd.html,,,,,,,,,,,,SanGIS Business Sites Public Domain (http://www.sangis.org/),,,,2071,,,,,,,,,,,,,,,,,,,,,,,,,,,,,,,,,,,,,,,,,,,,,,,,,,,,,,,,,,,,,,,,,,,,,,,,,,,,,,,,,,,,,,,,,,,,,,,,,,,,,,,,,,,,,,,,,,,,,,,,,,,,,,,,,,groceries,-116.9664562,32.6458007
node,365319460,,,,,,,,,Foodland Iga #2,,,,,,,,,,,supermarket,,,,,,,,,,,,,,,,SanGIS Business Sites Public Domain (http://www.sangis.org/),,,,,,,,,,,,,,,,,,,,,,,,,,,,,,,,,,,,,,,,,,,,,,,,,,,,,,,,,,,,,,,,,,,,,,,,,,,,,,,,,,,,,,,,,,,,,,,,,,,,,,,,,,,,,,,,,,,,,,,,,,,,,,,,,,,,,,groceries,-117.099599,32.682715
node,365319491,San Diego,2909,92154,CA,Coronado Avenue,,,,Northgate Supermarket,Mo-Su 08:00-22:00,,,,,,,,+1-619-429-8212,,supermarket,,,,https://www.northgatemarket.com,,,,,,,,,,,,SanGIS Business Sites Public Domain (http://www.sangis.org/),,,,,,,,,,,,,,,,,,,,,,,,,,,,,,,,,,,,,,,,,,,,,,,,,,,,,,,,,,,,,,,,,,,,,,,,,,,,,,,,,,,,,,,,,,,,,,,,,,,,,,,,,,,,,,,,,,,,,,,,,,,,,,,,,,,,,,groceries,-117.070391,32.5759506
node,365319534,La Mesa,8011,91941,CA,University Avenue,,Vons,Q7941609,Vons,,,,,,,,,+1 619-464-1011,,supermarket,,,,https://local.vons.com/ca/la-mesa/8011-university-ave.html,,,,,,,,,,,,SanGIS Addresses Public Domain (http://www.sangis.org/);SanGIS Business Sites Public Domain (http://www.sangis.org/),,,,,,,,,,,,,,,,,,,,,,,,,,,,,,,,,,,,,,,,,,,,,,,,,,,,,,,,,,,,,,,,,,,,,,,,,,,,,,,,,,,,,,,,,,,,,,,,,,,,,,,,,,,,,,,,,,,,,,,,,,,,,,,,,,,,,,groceries,-117.0242861,32.7653189
node,365319538,San Diego,4220,,CA,Balboa Avenue,,,,Harvest International Market,,,,,,,,,,,supermarket,,,,http://harvestinternationalmarket.com/,,,,,,,,,,,,SanGIS Business Sites Public Domain (http://www.sangis.org/),,,,,,,,,,,,,,,,,,,,,,,,,,,,,,,,,,,,,,,,,,,,,,,,,,,,,,,,,,,,,,,,,,,,,,,,,,,,,,,,,,,,,,,,,,,,,,,,,,,,,,,,,,,,,,,,,,,,,,,,,,,,,,,,,,,,,,groceries,-117.2001002,32.812549
node,365319546,,,,,,,Food 4 Less,Q5465282,Food 4 Less,,,,,,,,,,,supermarket,,,,,,,,,,,,,,,,SanGIS Business Sites Public Domain (http://www.sangis.org/),,,,,,,,,,,,,,,,,,,,,,,,,,,,,,,,,,,,,,,,,,,,,,,,,,,,,,,,,,,,,,,,,,,,,,,,,,,,,,,,,,,,,,,,,,,,,,,,,,,,,,,,,,,,,,,,,,,,,,,,,,,,,,,,,,,,,,groceries,-117.085871,32.660204
node,365319549,,,,,,,,,Harvest Ranch Market #4,,,,,,,,,,,supermarket,,,,,,,,,,,,,,,,SanGIS Business Sites Public Domain (http://www.sangis.org/),,,,,,,,,,,,,,,,,,,,,,,,,,,,,,,,,,,,,,,,,,,,,,,,,,,,,,,,,,,,,,,,,,,,,,,,,,,,,,,,,,,,,,,,,,,,,,,,,,,,,,,,,,,,,,,,,,,,,,,,,,,,,,,,,,,,,,groceries,-117.2648732,32.9594827
node,365319550,National City,3700,91950,CA,Highland Avenue,,El Super,Q124810916,El Super,Mo-Su 07:00-22:00,,,,,,,,,,supermarket,,,,,,,,,,,,,,,,SanGIS Business Sites Public Domain (http://www.sangis.org/),,,,,,,,,,,,,,,,,,,,,,,,,,,,,,,,,,,,,,,,,,,,,,,,,,,,,,,,,,,,,,,,,,,,,,,,,,,,,,,,,,,,,,,,,,,,,,,,,,,,,,,,,,,,,,,,,,,,,,,,,,,,,,,,,,,,,,groceries,-117.089328,32.658835
node,365319551,,,,,,,,,Northgate Market,,,,,,,,,,,supermarket,,,,,,,,,,,,,,,,SanGIS Business Sites Public Domain (http://www.sangis.org/),,,,,,,,,,,,,,,,,,,,,,,,,,,,,,,,,,,,,,,,,,,,,,,,,,,,,,,,,,,,,,,,,,,,,,,,,,,,,,,,,,,,,,,,,,,,,,,,,,,,,,,,,,,,,,,,,,,,,,,,,,,,,,,,,,,,,,groceries,-117.1039822,32.6916119
node,365319568,San Diego,3239,92104,,El Cajon Boulevard,,,,Pancho Villa Farmer's Market,,,,,,,,,,,supermarket,,,,,,,,,,,,,,,,SanGIS Addresses Public Domain (http://www.sangis.org/),,,,,US,,,,,,,,,,,,,,,,,,,,,,,,,,,,,,,,,,,,,,,,,,,,,,,,,,,,,,,,,,,,,,,,,,,,,,,,,,,,,,,,,,,,,,,,,,,,,,,,,,,,,,,,,,,,,,,,,,,,,,,,,,,,,,,,,groceries,-117.1233809,32.7545883
node,365319579,El Cajon,2899,92019,CA,Jamacha Road,,Albertsons,Q2831861,Albertsons,,,,,,,,,+1 619-660-9717,,supermarket,,,,https://local.albertsons.com/ca/el-cajon/2899-jamacha-rd.html,,,,,,,,,,,,SanGIS Business Sites Public Domain (http://www.sangis.org/),,,,,,,,,,,,,,,,,,,,,,,,,,,,,,,,,,,,,,,,,,,,,,,,,,,,,,,,,,,,,,,,,,,,,,,,,,,,,,,,,,,,,,,,,,,,,,,,,,,,,,,,,,,,,,,,,,,,,,,,,,,,,,,,,,,,,,groceries,-116.937744,32.7393034
node,365319606,,,,,,,,,Pay-Low Super Market,,,,,,,,,,,supermarket,,,,,,,,,,,,,,,,SanGIS Business Sites Public Domain (http://www.sangis.org/),,,,,,,,,,,,,,,,,,,,,,,,,,,,,,,,,,,,,,,,,,,,,,,,,,,,,,,,,,,,,,,,,,,,,,,,,,,,,,,,,,,,,,,,,,,,,,,,,,,,,,,,,,,,,,,,,,,,,,,,,,,,,,,,,,,,,,groceries,-117.027292,32.698243
node,365319644,Spring Valley,543,91977,CA,Sweetwater Road,,Albertsons,Q2831861,Albertsons,Mo-Su 06:00-24:00,,,,,,,,+1-619-461-5700,,supermarket,,,,https://local.albertsons.com/ca/spring-valley/543-sweetwater-rd.html,,,,,,,,,,,,SanGIS Business Sites Public Domain (http://www.sangis.org/),,,,,,,,,,,,,,,,,,,,,,,,,,,,,,,,,,,,,,,,,,,,,,,,,,,,,,,,,,,,,,,,,,,,,,,,,,,,,,,,,,,,,,,,,,,,,,,,,,,,,,,,,,,,,,,,,,,,,,,,,,,,,,,,,,,,,,groceries,-117.008632,32.708019
node,365319668,Escondido,1924,92029,CA,West 11th Avenue,,Albertsons,Q2831861,Albertsons,Mo-Su 06:00-23:00,,,,,,,,+1 760-738-1669,,supermarket,,,,https://local.albertsons.com/ca/escondido/1570-w-valley-pkwy.html,,,,,,,,,,,,SanGIS Business Sites Public Domain (http://www.sangis.org/);SanGIS Addresses Public Domain (http://www.sangis.org/),,,,,,,,,,,,,,,,,,,,,,,,,,,,,,,,,,,,,,,,,,,,,,,,,,,,,,,,,,,,,,,,,,,,,,,,,,,,,,,,,,,,,,,,,,,,,,,,,,,,,,,,,,,,,,,,,,,,,,,,,,,,,,,,,,,,,,groceries,-117.105855,33.1087912
node,365319679,,,,,,,Food 4 Less,Q5465282,Food 4 Less,Mo-Su 06:00-01:00,,,,,,,,,,supermarket,,,,,,,,,,,,,,,,SanGIS Business Sites Public Domain (http://www.sangis.org/),,,,,,yes,,,,,,,,,,,,,,,,,,,,,,,,,,,,,,,,,,,,,,,,,,,,,,,,,,,,,,,,,,,,,,,,,,,,,,,,,,,,,,,,,,,,,,,,,,,,,,,,,,,,,,,,,,,,,,,,,,,,,,,,,,,,,,,,groceries,-116.985351,32.8480954
node,365319696,,,,,,,Albertsons,Q2831861,Albertsons,,,,,,,,,,,supermarket,,,,,,,,,,,,,,,,SanGIS Business Sites Public Domain (http://www.sangis.org/),,,,,,,,,,,,,,,,,,,,,,,,,,,,,,,,,,,,,,,,,,,,,,,,,,,,,,,,,,,,,,,,,,,,,,,,,,,,,,,,,,,,,,,,,,,,,,,,,,,,,,,,,,,,,,,,,,,,,,,,,,,,,,,,,,,,,,groceries,-116.96407,32.796004
node,365319706,,,,,,,,,Jonathans Of La Jolla,,,,,,,,,,,supermarket,,,,,,,,,,,,,,,,SanGIS Business Sites Public Domain (http://www.sangis.org/),,,,,,,,,,,,,,,,,,,,,,,,,,,,,,,,,,,,,,,,,,,,,,,,,,,,,,,,,,,,,,,,,,,,,,,,,,,,,,,,,,,,,,,,,,,,,,,,,,,,,,,,,,,,,,,,,,,,,,,,,,,,,,,,,,,,,,groceries,-117.274095,32.842531
node,365319710,Lemon Grove,7090,91945,CA,Broadway,,Albertsons,Q2831861,Albertsons,Mo-Su 05:00-23:00,,,,,,,,+1 619-463-4418,,supermarket,,,,https://local.albertsons.com/ca/lemon-grove/7090-broadway.html,,,,,,,,,,,,SanGIS Business Sites Public Domain (http://www.sangis.org/),,,,,,yes,,,,,,,,,,,,,,,,,,,,,,,,,,,,,,,,,,,,,,,,,,,,,,,,,,,,,,,,,,,,,,,,,,,,,,,,,,,,,,,,,,,,,,,,,,,,,,,,,,,,,,,,,,,,,,,,,,,,,,,,,,,,,,,,groceries,-117.0452275,32.7436452
node,365319753,,,,,,,,,Food Giant,,,,,,,,,,,supermarket,,,,,,,,,,,,,,,,SanGIS Business Sites Public Domain (http://www.sangis.org/),,,,,,,,,,,,,,,,,,,,,,,,,,,,,,,,,,,,,,,,,,,,,,,,,,,,,,,,,,,,,,,,,,,,,,,,,,,,,,,,,,,,,,,,,,,,,,,,,,,,,,,,,,,,,,,,,,,,,,,,,,,,,,,,,,,,,,groceries,-117.086173,32.696312
node,365319757,,,,,,,Food 4 Less,Q5465282,Food 4 Less,,,,,,,,,,,supermarket,,,,,,,,,,,,,,,,SanGIS Business Sites Public Domain (http://www.sangis.org/),,,,,,,,,,,,,,,,,,,,,,,,,,,,,,,,,,,,,,,,,,,,,,,,,,,,,,,,,,,,,,,,,,,,,,,,,,,,,,,,,,,,,,,,,,,,,,,,,,,,,,,,,,,,,,,,,,,,,,,,,,,,,,,,,,,,,,groceries,-117.068158,32.750884
node,365319764,,,,,,,,,La Jolla Shores Market,,,,,,,,,,,supermarket,,,,,,,,,,,,,,,,SanGIS Business Sites Public Domain (http://www.sangis.org/),,,,,,,,,,,,,,,,,,,,,,,,,,,,,,,,,,,,,,,,,,,,,,,,,,,,,,,,,,,,,,,,,,,,,,,,,,,,,,,,,,,,,,,,,,,,,,,,,,,,,,,,,,,,,,,,,,,,,,,,,,,,,,,,,,,,,,groceries,-117.254215,32.853574
node,365319768,San Diego,3345,92110,CA,Sports Arena Boulevard,Sports Arena,Ralphs,Q3929820,Ralphs,Mo-Su 05:00-01:00,,,,,,,,+1 619-222-5818,7030020109,supermarket,,,,https://www.ralphs.com/stores/grocery/ca/san-diego/sports-arena/703/00201,,,,,,,,,,,,SanGIS Business Sites Public Domain (http://www.sangis.org/),,,,,,,,,,,,,,,,,,,,,,,,,,,,,,,,,,,,,,,,,,,,,,,,,,,,,,,,,,,,,,,,,,,,,,,,,,,,,,,,,,,,,,,,,,,,,,,,,,,,,,,,,,,,,,,,,,,,,,,,,,,,,,,,,,,,,,groceries,-117.2109327,32.751781
node,365319772,San Diego,3720,92106,,Voltaire Street,,,,Stump's Family Marketplace,,,,,,,,,,,supermarket,,,,,,,,,,,,,,,,SanGIS Business Sites Public Domain (http://www.sangis.org/);SanGIS Addresses Public Domain (http://www.sangis.org/),,,,,,,,,,,,,,,,,,,,,,,,,,,,,,,,,,,,,,,,,,,,,,,,,,,,,,,,,,,,,,,,,,,,,,,,,,,,,,,,,,,,,,,,,,,,,,,,,,,,,,,,,,,,,,,,,,,,,,,,,,,,,,,,,,,,,,groceries,-117.2291935,32.7412777
node,365319785,San Diego,12475,92128,CA,Rancho Bernardo Road,,Albertsons,Q2831861,Albertsons,,,,,,,,,+1 858-385-9223,,supermarket,,,,https://local.albertsons.com/ca/san-diego/12475-rancho-bernardo-rd.html,,2023-02-19,,,,,,,,,,SanGIS Business Sites Public Domain (http://www.sangis.org/),,,,,,,,,,,,,,,,,,,,,,,,,,,,,,,,,,,,,,,,,,,,,,,,,,,,,,,,,,,,,,,,,,,,,,,,,,,,,,,,,,,,,,,,,,,,,,,,,,,,,,,,,,,,,,,,,,,,,,,,,,,,,,,,,,,,,,groceries,-117.061518,33.0178029
node,365319815,,,,,,,Food 4 Less,Q5465282,Food 4 Less,,,,,,,,,,,supermarket,,,,,,,,,,,,,,,,SanGIS Business Sites Public Domain (http://www.sangis.org/),,,,,,yes,,,,,,,,,,,,,,,,,,,,,,,,,,,,,,,,,,,,,,,,,,,,,,,,,,,,,,,,,,,,,,,,,,,,,,,,,,,,,,,,,,,,,,,,,,,,,,,,,,,,,,,,,,,,,,,,,,,,,,,,,,,,,,,,groceries,-117.0829379,32.6026504
node,365319898,San Ysidro,350,92173,CA,West San Ysidro Boulevard,,El Super,,El Super,,,,,,,,,,,supermarket,,,,https://elsupermarkets.com,,,,,,,,,,,,SanGIS Business Sites Public Domain (http://www.sangis.org/),,,,,,,,,,,,,,,,,,,,,,,,,,,,,,,,,,,,,,,,,,,,,,,,,,,,,,,,,,,,,,,,,,,,,,,,,,,,,,,,,,,,,,,,,,,,,,,,,,,,,,,,,,,,,,,,,,,,,,,,,,,,,,,,,,,,,,groceries,-117.05133,32.5548088
node,365319914,Carlsbad,7660,92009,CA,El Camino Real,,,,Gelson's,,,,,,,,,,,supermarket,,,,,,,,,,,,,,,,SanGIS Business Sites Public Domain (http://www.sangis.org/),,,,,,,,,,,,,,,,,,,,,,,,,,,,,,,,,,,,,,,,,,,,,,,,,,,,,,,,,,,,,,,,,,,,,,,,,,,,,,,,,,,,,,,,,,,,,,,,,,,,,,,,,,,,,,,,,,,,,,,,,,,,,,,,,,,,,,groceries,-117.267067,33.0873168
node,365319922,San Diego,6670,92115,CA,Montezuma Road,Montezuma,Ralphs,Q3929820,Ralphs,Mo-Su 05:00-01:00,,,,,,,,+1 619-463-8893,70300220,supermarket,,,,https://www.ralphs.com/stores/grocery/ca/san-diego/montezuma/703/00220,,,,,,,,,,,,SanGIS Business Sites Public Domain (http://www.sangis.org/),,,,,,,,,,,,,,,,,,,,,,,,,,,,,,,,,,,,,,,,,,,,,,,,,,,,,,,,,,,,,,,,,,,,,,,,,,,,,,,,,,,,,,,,,,,,,,,,,,,,,,,,,,,,,,,,,,,,,,,,,,,,,,,,,,,,,,groceries,-117.054379,32.769245
node,365319933,,,,,,,,,Salsa Market,,,,,,,,,,,supermarket,,,,,,,,,,,,,,,,SanGIS Business Sites Public Domain (http://www.sangis.org/),,,,,,,,,,,,,,,,,,,,,,,,,,,,,,,,,,,,,,,,,,,,,,,,,,,,,,,,,,,,,,,,,,,,,,,,,,,,,,,,,,,,,,,,,,,,,,,,,,,,,,,,,,,,,,,,,,,,,,,,,,,,,,,,,,,,,,groceries,-116.967177,32.781016
node,365319945,,,,,,,,,Food Palace,,,,,,,,,,,supermarket,,,,,,,,,,,,,,,,SanGIS Business Sites Public Domain (http://www.sangis.org/),,,,,,,,,,,,,,,,,,,,,,,,,,,,,,,,,,,,,,,,,,,,,,,,,,,,,,,,,,,,,,,,,,,,,,,,,,,,,,,,,,,,,,,,,,,,,,,,,,,,,,,,,,,,,,,,,,,,,,,,,,,,,,,,,,,,,,groceries,-117.117565,32.697051
node,365319948,Santee,9870,92071,CA,North Magnolia Avenue,Supermarket,Smart & Final,Q7543916,Smart & Final Extra!,,,,,,,,,,,supermarket,,,,,,,,,,,,,,,,SanGIS Business Sites Public Domain (http://www.sangis.org/),,,,,,,,,,,,,,,,,,,,,,,,,,,,,,,,,,,,,,,,,,,,,,,,,,,,,,,,,,,,,,,,,,,,,,,,,,,,,,,,,,,,,,,,,,,,,,,,,,,,,,,,,,,,,,,,,,,,,,,,,,,,,,,,,,,,,,groceries,-116.9721883,32.8564347
node,365319956,,,,,,,,,Harvest Ranch Market #2,,,,,,,,,,,supermarket,,,,,,,,,,,,,,,,SanGIS Business Sites Public Domain (http://www.sangis.org/),,,,,,,,,,,,,,,,,,,,,,,,,,,,,,,,,,,,,,,,,,,,,,,,,,,,,,,,,,,,,,,,,,,,,,,,,,,,,,,,,,,,,,,,,,,,,,,,,,,,,,,,,,,,,,,,,,,,,,,,,,,,,,,,,,,,,,groceries,-117.2381936,33.0356349
node,365319961,,,,,,,,,Hometown Iga #2,,,,,,,,,,,supermarket,,,,,,,,,,,,,,,,SanGIS Business Sites Public Domain (http://www.sangis.org/),,,,,,,,,,,,,,,,,,,,,,,,,,,,,,,,,,,,,,,,,,,,,,,,,,,,,,,,,,,,,,,,,,,,,,,,,,,,,,,,,,,,,,,,,,,,,,,,,,,,,,,,,,,,,,,,,,,,,,,,,,,,,,,,,,,,,,groceries,-117.0955849,32.6401684
node,365320007,San Diego,3011,92139,CA,Alta View Drive,South Bay Terrace SC,Ralphs,Q3929820,Ralphs,Mo-Su 06:00-01:00,,,,,,,,+1 619-470-0574,,supermarket,,,,https://www.ralphs.com/stores/grocery/ca/san-diego/south-bay-terrace-sc/703/00159,,,,,,,,,,,,SanGIS Business Sites Public Domain (http://www.sangis.org/),,,,,,,,,,,,,,,,,,,,,,,,,,,,,,,,,,,,,,,,,,,,,,,,,,,,,,,,,,,,,,,,,,,,,,,,,,,,,,,,,,,,,,,,,,,,,,,,,,,,,,,,,,,,,,,,,,,,,,,,,,,,,,,,,,,,,,groceries,-117.038896,32.676575
node,365320031,,,,,,,,,Market Place #204,,,,,,,,,,,supermarket,,,,,,,,,,,,,,,,SanGIS Business Sites Public Domain (http://www.sangis.org/),,,,,,,Potlatch 0.10f,,,,,,,,,,,,,,,,,,,,,,,,,,,,,,,,,,,,,,,,,,,,,,,,,,,,,,,,,,,,,,,,,,,,,,,,,,,,,,,,,,,,,,,,,,,,,,,,,,,,,,,,,,,,,,,,,,,,,,,,,,,,,,,groceries,-117.1175361,32.7495176
node,365327858,Chula Vista,913,91913-3002,CA,Otay Lakes Road,,7-Eleven,Q259340,7-Eleven,,,,,,,,,+1 619-421-2280,13586,convenience,,,,https://www.7-eleven.com/locations/ca/chula-vista/913-otay-lakes-rd-13586,,,,,,,,,yes,yes,yes,SanGIS Business Sites Public Domain (http://www.sangis.org/),,,,,,,,yes,,,,,,,,,,,,,,,,,,,,,,,,,,,,,,,,,,,,,,,,,,,,,,,,,,,,,,,,,,,,,,,,,,,,,,,,,,,,,,,,,,,,,,,,,,,,,,,,,,,,,,,,,,,,,,,,,,,,,,,,,,,,,,groceries,-116.993241,32.642313
node,365327863,San Ysidro,191,92173,CA,West San Ysidro Boulevard,,7-Eleven,Q259340,7-Eleven,,,yes,,,,,,+1 619-428-4990,17825,convenience,,,,https://www.7-eleven.com/locations/ca/san-ysidro/191-w-san-ysidro-blvd-17825,,,,,,,,,yes,yes,yes,SanGIS Business Sites Public Domain (http://www.sangis.org/);SanGIS Addresses Public Domain (http://www.sangis.org/),,,,,US,,,,yes,yes,,,,,,,,,,,,,,,,,,,,,,,,,,,,,,,,,,,,,,,,,,,,,,,,,,,,,,,,,,,,,,,,,,,,,,,,,,,,,,,,,,,,,,,,,,,,,,,,,,,,,,,,,,,,,,,,,,,,,,,,,,,,groceries,-117.047775,32.554101
node,365327879,El Cajon,375,92020-3718,CA,West Madison Avenue,,7-Eleven,Q259340,7-Eleven,,,,,,,,,+1 619-440-7414,13658,convenience,,,,https://www.7-eleven.com/locations/ca/el-cajon/375-west-madison-ave-13658,,,,,,,,,yes,yes,yes,SanGIS Business Sites Public Domain (http://www.sangis.org/),,,,,,,,,,,,,,,,,,,,,,,,,,,,,,,,,,,,,,,,,,,,,,,,,,,,,,,,,,,,,,,,,,,,,,,,,,,,,,,,,,,,,,,,,,,,,,,,,,,,,,,,,,,,,,,,,,,,,,,,,,,,,,,,,,,,,,groceries,-116.966267,32.800463
node,365327894,,,,,,,7-Eleven,Q259340,7-Eleven,,,,,,,,,,,convenience,,,,,,,,,,,,,,,,SanGIS Business Sites Public Domain (http://www.sangis.org/),,,,,,,,,,,https://www.7-eleven.com/locations/ca/la-mesa/4610-avocado-blvd-13664,,,,,,,,,,,,,,,,,,,,,,,,,,,,,,,,,,,,,,,,,,,,,,,,,,,,,,,,,,,,,,,,,,,,,,,,,,,,,,,,,,,,,,,,,,,,,,,,,,,,,,,,,,,,,,,,,,,,,,,,,,,groceries,-116.961534,32.763124
node,365327898,,,,,,,7-Eleven,Q259340,7-Eleven,,,,,,,,,,,convenience,,,,,,,,,,,,,,,,,,,,,,,,,,,,,,,,,,,,,,,,,,,,,,,,,,,,,,,,,,,,,,,,,,,,,,,,,,,,,,,,,,,,,,,,,,,,,,,,,,,,,,,,,,,,,,,,,,,,,,,,,,,,,,,,,,,,,,,,,,,,,,,,,,,,,,groceries,-116.9612802,32.7295259
node,365327902,,,,,,,7-Eleven,Q259340,7-Eleven,,,,,,,,,,,convenience,,,,,,,,,,,,,,,,SanGIS Business Sites Public Domain (http://www.sangis.org/),,,,,,,,,,,,,,,,,,,,,,,,,,,,,,,,,,,,,,,,,,,,,,,,,,,,,,,,,,,,,,,,,,,,,,,,,,,,,,,,,,,,,,,,,,,,,,,,,,,,,,,,,,,,,,,,,,,,,,,,,,,,,,,,,,,,,,groceries,-117.180297,32.817122
node,365327924,Encinitas,592,92024-4640,CA,Santa Fe Drive,,7-Eleven,Q259340,7-Eleven,,,,,,,,,+1 760-753-4047,13620,convenience,,,,https://www.7-eleven.com/locations/ca/encinitas/592-santa-fe-dr-13620,,,,,,,,,yes,yes,yes,SanGIS Business Sites Public Domain (http://www.sangis.org/),,,,,,,,,,,,,,,,,,,,,,,,,,,,,,,,,,,,,,,,,,,,,,,,,,,,,,,,,,,,,,,,,,,,,,,,,,,,,,,,,,,,,,,,,,,,,,,,,,,,,,,,,,,,,,,,,,,,,,,,,,,,,,,,,,,,,,groceries,-117.2796415,33.0365202
node,365327928,San Diego,3185,92110-4552,CA,Midway Drive,,7-Eleven,Q259340,7-Eleven,,,,,,,,,+1 619-222-9969,27659,convenience,,,,https://www.7-eleven.com/locations/ca/san-diego/3185-midway-dr-27659,,,,,,,,,yes,yes,yes,SanGIS Business Sites Public Domain (http://www.sangis.org/),,,,,,,,,,,,,,,,,,,,,,,,,,,,,,,,,,,,,,,,,,,,,,,,,,,,,,,,,,,,,,,,,,,,,,,,,,,,,,,,,,,,,,,,,,,,,,,,,,,,,,,,,,,,,,,,,,,,,,,,,,,,,,,,,,,,,,groceries,-117.2094062,32.7500269
node,365327937,,,,,,,7-Eleven,Q259340,7-Eleven,,,,,,,,,,,convenience,,,,,,,,,,,,,,,,SanGIS Business Sites Public Domain (http://www.sangis.org/),,,,,,,,,,,https://www.7-eleven.com/locations/ca/imperial-beach/1311-palm-ave-24344,,,,,,,,,,,,,,,,,,,,,,,,,,,,,,,,,,,,,,,,,,,,,,,,,,,,,,,,,,,,,,,,,,,,,,,,,,,,,,,,,,,,,,,,,,,,,,,,,,,,,,,,,,,,,,,,,,,,,,,,,,,groceries,-117.1052989,32.5833837
node,365327946,San Diego,1305,92109-3012,CA,Garnet Avenue,,7-Eleven,Q259340,7-Eleven,,,,,,,,,+1 858-272-2670,13623,convenience,,,,https://www.7-eleven.com/locations/ca/san-diego/1305-garnet-ave-13623,,,,,,,,,yes,yes,yes,SanGIS Business Sites Public Domain (http://www.sangis.org/),,,,,,,,,,,,,,,,,,,,,,,,,,,,,,,,,,,,,,,,,,,,,,,,,,,,,,,,,,,,,,,,,,,,,,,,,,,,,,,,,,,,,,,,,,,,,,,,,,,,,,,,,,,,,,,,,,,,,,,,,,,,,,,,,,,,,,groceries,-117.2460145,32.798286
node,365327953,El Cajon,1253,92020-4109,CA,West Main Street,,7-Eleven,Q259340,7-Eleven,,,,,,,,,+1 619-444-8479,21787,convenience,,,,https://www.7-eleven.com/locations/ca/el-cajon/1253-w.-main-st.-21787,,,,,,,,,yes,yes,yes,SanGIS Business Sites Public Domain (http://www.sangis.org/),,,,,,,,yes,,,https://www.7-eleven.com/locations/ca/el-cajon/1253-w-main-st-21787,,,,,,,,,,,,,,,,,,,,,,,,,,,,,,,,,,,,,,,,,,,,,,,,,,,,,,,,,,,,,,,,,,,,,,,,,,,,,,,,,,,,,,,,,,,,,,,,,,,,,,,,,,,,,,,,,,,,,,,,,,,groceries,-116.97922,32.794693
node,365327983,Chula Vista,275,91910-2942,CA,East Street,,7-Eleven,Q259340,7-Eleven,,,,,,,,,+1 619-500-5098,13591,convenience,,,,https://www.7-eleven.com/locations/ca/chula-vista/275-e-st-13591,,,,,,,,,yes,yes,yes,SanGIS Business Sites Public Domain (http://www.sangis.org/),,,,,,,,yes,,,,,,,,,,,,,,,,,,,,,,,,,,,,,,,,,,,,,,,,,,,,,,,,,,,,,,,,,,,,,,,,,,,,,,,,,,,,,,,,,,,,,,,,,,,,,,,,,,,,,,,,,,,,,,,,,,,,,,,,,,,,,,groceries,-117.080108,32.64545
node,365327992,El Cajon,394,92020-6307,CA,West Chase Avenue,,7-Eleven,Q259340,7-Eleven,,,,,,,,,+1 619-442-3513,16070,convenience,,,,https://www.7-eleven.com/locations/ca/el-cajon/394-west-chase-ave-16070,,,,,,,,,yes,yes,yes,SanGIS Business Sites Public Domain (http://www.sangis.org/),,,,,,,,,,,,,,,,,,,,,,,,,,,,,,,,,,,,,,,,,,,,,,,,,,,,,,,,,,,,,,,,,,,,,,,,,,,,,,,,,,,,,,,,,,,,,,,,,,,,,,,,,,,,,,,,,,,,,,,,,,,,,,,,,,,,,,groceries,-116.966295,32.780746
node,365327995,San Diego,4983,92109-2039,CA,Cass Street,,7-Eleven,Q259340,7-Eleven,,,,,,,,,+1 858-483-1394,13603,convenience,,,,https://www.7-eleven.com/locations/ca/san-diego/4983-cass-st-13603,,,,,,,,,yes,yes,yes,SanGIS Business Sites Public Domain (http://www.sangis.org/),,,,,,,,yes,,,,,,,,,,,,,,,,,,,,,,,,,,,,,,,,,,,,,,,,,,,,,,,,,,,,,,,,,,,,,,,,,,,,,,,,,,,,,,,,,,,,,,,,,,,,,,,,,,,,,,,,,,,,,,,,,,,,,,,,,,,,,,groceries,-117.2539937,32.8056506
node,365328001,National City,3100,91950-3932,CA,East Plaza Boulevard,,7-Eleven,Q259340,7-Eleven,,,,,,,,,+1 619-773-6003,18978,convenience,,,,https://www.7-eleven.com/locations/ca/national-city/3100-e.-plaza-blvd.-18978,,,,,,,,,yes,yes,yes,SanGIS Business Sites Public Domain (http://www.sangis.org/),,,,,,,,,,,,,,,,,,,,,,,,,,,,,,,,,,,,,,,,,,,,,,,,,,,,,,,,,,,,,,,,,,,,,,,,,,,,,,,,,,,,,,,,,,,,,,,,,,,,,,,,,,,,,,,,,,,,,,,,,,,,,,,,,,,,,,groceries,-117.073368,32.681565
node,365328011,Santee,9805,92071-4329,CA,Prospect Avenue,,7-Eleven,Q259340,7-Eleven,,,,,,,,,+1 619-449-5376,20611,convenience,,,,https://www.7-eleven.com/locations/ca/santee/9805-prospect-ave.-20611,,,,,,,,,yes,yes,yes,SanGIS Business Sites Public Domain (http://www.sangis.org/),,,,,,,,,,,https://www.7-eleven.com/locations/ca/santee/9805-prospect-ave-20611,,,,,,,,,,,,,,,,,,,,,,,,,,,,,,,,,,,,,,,,,,,,,,,,,,,,,,,,,,,,,,,,,,,,,,,,,,,,,,,,,,,,,,,,,,,,,,,,,,,,,,,,,,,,,,,,,,,,,,,,,,,groceries,-116.9831611,32.8311612
node,365328167,San Diego,4687,92116-3227,CA,Ohio Street,,7-Eleven,Q259340,7-Eleven,,,,,,,,,+1 619-282-6981,16073,convenience,,,,https://www.7-eleven.com/locations/ca/san-diego/4687-ohio-st-16073,,,,,,,,,yes,yes,yes,SanGIS Business Sites Public Domain (http://www.sangis.org/),,,,,,,,,,,,,,,,,,,,,,,,,,,,,,,,,,,,,,,,,,,,,,,,,,,,,,,,,,,,,,,,,,,,,,,,,,,,,,,,,,,,,,,,,,,,,,,,,,,,,,,,,,,,,,,,,,,,,,,,,,,,,,,,,,,,,,groceries,-117.128601,32.762696
node,365328173,,,,,,,7-Eleven,Q259340,7-Eleven,24/7,,,,,,,,,,convenience,,,,,,,,,,,,,,,,SanGIS Business Sites Public Domain (http://www.sangis.org/),,,,,,,,,,,https://www.7-eleven.com/locations/ca/santee/9750-cuyamaca-st-20321,,,,,,,,,,,,,,,,,,,,,,,,,,,,,,,,,,,,,,,,,,,,,,,,,,,,,,,,,,,,,,,,,,,,,,,,,,,,,,,,,,,,,,,,,,,,,,,,,,,,,,,,,,,,,,,,,,,,,,,,,,,groceries,-116.9838746,32.8548504
node,365328189,National City,807,91950-2442,CA,East 8th Street,,7-Eleven,Q259340,7-Eleven,,,,,,,,,+1 619-474-5900,18218,convenience,,,,https://www.7-eleven.com/locations/ca/national-city/807-east-8th-st-18218,,,,,,,,,yes,yes,yes,SanGIS Business Sites Public Domain (http://www.sangis.org/),,,,,,,,,,,,,,,,,,,,,,,,,,,,,,,,,,,,,,,,,,,,,,,,,,,,,,,,,,,,,,,,,,,,,,,,,,,,,,,,,,,,,,,,,,,,,,,,,,,,,,,,,,,,,,,,,,,,,,,,,,,,,,,,,,,,,,groceries,-117.09854,32.678502
node,365328198,,,,,,,,,7-Eleven,,,,,,,,,,,convenience,,,,,,,,,,,,,,,,SanGIS Business Sites Public Domain (http://www.sangis.org/),,,,,,,,,,,,,,,,,,,,,,,,,,,,,,,,,,,,,,,,,,,,,,,,,,,,,,,,,,,,,,,,,,,,,,,,,,,,,,,,,,,,,,,,,,,,,,,,,,,,,,,,,,,,,,,,,,,,,,,,,,,,,,,,,,,,,,groceries,-117.053806,32.57418
node,365328208,San Diego,2295,92154-4759,CA,Palm Avenue,,7-Eleven,Q259340,7-Eleven,,,,,,,,,+1 619-737-5505,27163,convenience,,,,https://www.7-eleven.com/locations/ca/san-diego/2295-palm-ave-27163,,,,,,,,,yes,yes,yes,SanGIS Business Sites Public Domain (http://www.sangis.org/),,,,,,,,yes,,,,,,,,,,,,,,,,,,,,,,,,,,,,,,,,,,,,,,,,,,,,,,,,,,,,,,,,,,,,,,,,,,,,,,,,,,,,,,,,,,,,,,,,,,,,,,,,,,,,,,,,,,,,,,,,,,,,,,,,,,,,,,groceries,-117.084474,32.583488
node,365328228,El Cajon,108,92020-5170,CA,West Washington Avenue,,7-Eleven,Q259340,7-Eleven,,,,,,,,,+1 619-447-1207,21834,convenience,,,,https://www.7-eleven.com/locations/ca/el-cajon/108-w.-washington-ave-21834,,,,,,,,,yes,yes,yes,SanGIS Business Sites Public Domain (http://www.sangis.org/),,,,,,,,,,,https://www.7-eleven.com/locations/ca/el-cajon/108-w-washington-ave-21834,,,,,,,,,,,,,,,,,,,,,,,,,,,,,,,,,,,,,,,,,,,,,,,,,,,,,,,,,,,,,,,,,,,,,,,,,,,,,,,,,,,,,,,,,,,,,,,,,,,,,,,,,,,,,,,,,,,,,,,,,,,groceries,-116.962675,32.787997
node,365328239,,,,,,,,,7-Eleven,,,,,,,,,,,convenience,,,,,,,,,,,,,,,,SanGIS Business Sites Public Domain (http://www.sangis.org/),,,,,,,,,,,,,,,,,,,,,,,,,,,,,,,,,,,,,,,,,,,,,,,,,,,,,,,,,,,,,,,,,,,,,,,,,,,,,,,,,,,,,,,,,,,,,,,,,,,,,,,,,,,,,,,,,,,,,,,,,,,,,,,,,,,,,,groceries,-117.057284,32.617343
node,365328241,La Mesa,7602,91942,CA,University Avenue,,7-Eleven,Q259340,7-Eleven,,,,,,,,,+1 619-375-8700,17945,convenience,,,,https://www.7-eleven.com/locations/ca/la-mesa/7602-university-ave-17945,,,,,,,,,yes,yes,yes,SanGIS Business Sites Public Domain (http://www.sangis.org/),,,,,,,,,,,,,,,,,,,,,,,,,,,,,,,,,,,,,,,,,,,,,,,,,,,,,,,,,,,,,,,,,,,,,,,,,,,,,,,,,,,,,,,,,,,,,,,,,,,,,,,,,,,,,,,,,,,,,,,,,,,,,,,,,,,,,,groceries,-117.0330437,32.7608951
node,365328258,Chula Vista,899,91911-1125,CA,BROADWAY,,7-Eleven,Q259340,7-Eleven,,,,,,,,,+1 619-422-4191,21604,convenience,,,,https://www.7-eleven.com/locations/ca/chula-vista/899-broadway-21604,,,,,,,,,yes,yes,yes,SanGIS Business Sites Public Domain (http://www.sangis.org/),,,,,,,,yes,,,,,,,,,,,,,,,,,,,,,,,,,,,,,,,,,,,,,,,,,,,,,,,,,,,,,,,,,,,,,,,,,,,,,,,,,,,,,,,,,,,,,,,,,,,,,,,,,,,,,,,,,,,,,,,,,,,,,,,,,,,,,,groceries,-117.083819,32.617635
node,365328268,San Diego,4340,92109-3916,CA,Mission Bvd,,7-Eleven,Q259340,7-Eleven,,,,,,,,,+1 858-483-7395,13609,convenience,,,,https://www.7-eleven.com/locations/ca/san-diego/4340-mission-bvd-13609,,,,,,,,,yes,yes,yes,SanGIS Business Sites Public Domain (http://www.sangis.org/),,,,,,,,,,,,,,,,,,,,,,,,,,,,,,,,,,,,,,,,,,,,,,,,,,,,,,,,,,,,,,,,,,,,,,,,,,,,,,,,,,,,,,,,,,,,,,,,,,,,,,,,,,,,,,,,,,,,,,,,,,,,,,,,,,,,,,groceries,-117.2549988,32.7941989
node,365328272,,,,,,,7-Eleven,Q259340,7-Eleven,,,,,,,,,,,convenience,,,,,,,,,,,,,,,,SanGIS Business Sites Public Domain (http://www.sangis.org/),,,,,,,,,,,https://www.7-eleven.com/locations/ca/chula-vista/1482-hilltop-dr-24070,,,,,,,,,,,,,,,,,,,,,,,,,,,,,,,,,,,,,,,,,,,,,,,,,,,,,,,,,,,,,,,,,,,,,,,,,,,,,,,,,,,,,,,,,,,,,,,,,,,,,,,,,,,,,,,,,,,,,,,,,,,groceries,-117.051871,32.600478
node,365328306,San Diego,8261,92126,,Gold Coast Drive,,7-Eleven,Q259340,7-Eleven,,,,,,,,,,,convenience,,,,,,,,,,,,,,,,SanGIS Business Sites Public Domain (http://www.sangis.org/);SanGIS Addresses Public Domain (http://www.sangis.org/),,,,,US,,,,,,https://www.7-eleven.com/locations/ca/san-diego/8261-gold-coast-drive-32131,,,,,,,,,,,,,,,,,,,,,,,,,,,,,,,,,,,,,,,,,,,,,,,,,,,,,,,,,,,,,,,,,,,,,,,,,,,,,,,,,,,,,,,,,,,,,,,,,,,,,,,,,,,,,,,,,,,,,,,,,,,groceries,-117.1454271,32.9048684
node,365328310,San Diego,2275,92109-3712,CA,Garnet Avenue,,7-Eleven,Q259340,7-Eleven,,,,,,,,,+1 858-274-1737,13613,convenience,,,,https://www.7-eleven.com/locations/ca/san-diego/2275-garnet-ave-13613,,,,,,,,,yes,yes,yes,SanGIS Business Sites Public Domain (http://www.sangis.org/),,,,,,,,,,,,,,,,,,,,,,,,,,,,,,,,,,,,,,,,,,,,,,,,,,,,,,,,,,,,,,,,,,,,,,,,,,,,,,,,,,,,,,,,,,,,,,,,,,,,,,,,,,,,,,,,,,,,,,,,,,,,,,,,,,,,,,groceries,-117.2283213,32.8023308
node,365328334,San Diego,2475,92102,CA,Broadway,,7-Eleven,Q259340,7-Eleven,24/7,,,,,,,,+1 619-233-3905,27664,convenience,,,,https://www.7-eleven.com/locations/ca/san-diego/2483-broadway-27664,,,,,,,,,yes,,yes,SanGIS Addresses Public Domain (http://www.sangis.org/);SanGIS Business Sites Public Domain (http://www.sangis.org/),,,,,US,,,,,,,,,,,,,,,,,,,,,,,,,,,,,,,,,,,,,,,,,,,,,,,,,,,,,,,,,,,,,,,,,,,,,,,,,,,,,,,,,,,,,,,,,,,,,,,,,,,,,,,,,,,,,,,,,,,,,,,,,,,,,,,,,groceries,-117.1406053,32.7153608
node,365328342,,,,,Billman Street,,7-Eleven,Q259340,7-Eleven,,,,,,,,,,,convenience,,,,,,,,,,,,,,,,SanGIS Business Sites Public Domain (http://www.sangis.org/),,,,,,,,,,,https://www.7-eleven.com/locations/ca/san-diego/3603-college-ave-19987,,,,,,,,,,,,,,,,,,,,,,,,,,,,,,,,,,,,,,,,,,,,,,,,,,,,,,,,,,,,,,,,,,,,,,,,,,,,,,,,,,,,,,,,,,,,,,,,,,,,,,,,,,,,,,,,,,,,,,,,,,,groceries,-117.0589535,32.7461227
node,365328345,San Diego,1995,92104-1047,CA,El Cajon Boulevard,,7-Eleven,Q259340,7-Eleven,,,,,,,,,+1 619-294-9440,26910,convenience,,,,https://www.7-eleven.com/locations/ca/san-diego/1995-el-cajon-blvd-26910,,,,,,,,,yes,yes,yes,SanGIS Business Sites Public Domain (http://www.sangis.org/),,,,,,,,,,,,,,,,,,,,,,,,,,,,,,,,,,,,,,,,,,,,,,,,,,,,,,,,,,,,,,,,,,,,,,,,,,,,,,,,,,,,,,,,,,,,,,,,,,,,,,,,,,,,,,,,,,,,,,,,,,,,,,,,,,,,,,groceries,-117.1439395,32.7548486
node,365328354,,,,,,,7-Eleven,Q259340,7-Eleven,,,,,,,,,,,convenience,,,,,,,,,,,,,,,,SanGIS Business Sites Public Domain (http://www.sangis.org/),,,,,,,,,,,,,,,,,,,,,,,,,,,,,,,,,,,,,,,,,,,,,,,,,,,,,,,,,,,,,,,,,,,,,,,,,,,,,,,,,,,,,,,,,,,,,,,,,,,,,,,,,,,,,,,,,,,,,,,,,,,,,,,,,,,,,,groceries,-117.2572123,33.0465898
node,365328373,El Cajon,735,92021-3111,CA,East Bradley Avenue,,7-Eleven,Q259340,7-Eleven,,,,,,,,,+1 619-448-8273,13646,convenience,,,,https://www.7-eleven.com/locations/ca/el-cajon/735-e.-bradley-avenue-13646,,,,,,,,,yes,yes,yes,SanGIS Business Sites Public Domain (http://www.sangis.org/),,,,,,,,,,,https://www.7-eleven.com/locations/ca/el-cajon/735-e-bradley-avenue-13646,,,,,,,,,,,,,,,,,,,,,,,,,,,,,,,,,,,,,,,,,,,,,,,,,,,,,,,,,,,,,,,,,,,,,,,,,,,,,,,,,,,,,,,,,,,,,,,,,,,,,,,,,,,,,,,,,,,,,,,,,,,groceries,-116.951286,32.818698
node,365328381,,,,,,,7-Eleven,Q259340,7-Eleven,,,,,,,,,,,convenience,,,,,,,,,,,,,,,,SanGIS Business Sites Public Domain (http://www.sangis.org/),,,,,,,,,,,https://www.7-eleven.com/locations/ca/san-ysidro/4210-beyer-blvd-26909,,,,,,,,,,,,,,,,,,,,,,,,,,,,,,,,,,,,,,,,,,,,,,,,,,,,,,,,,,,,,,,,,,,,,,,,,,,,,,,,,,,,,,,,,,,,,,,,,,,,,,,,,,,,,,,,,,,,,,,,,,,groceries,-117.044176,32.55861
node,365328390,,,,,,,7-Eleven,Q259340,7-Eleven,,,,,,,,,,,convenience,,,,,,,,,,,,,,,,SanGIS Business Sites Public Domain (http://www.sangis.org/),,,,,,yes,,,,,https://www.7-eleven.com/locations/ca/san-diego/6615-linda-vista-rd-13643,,,,,,,,,,,,,,,,,,,,,,,,,,,,,,,,,,,,,,,,,,,,,,,,,,,,,,,,,,,,,,,,,,,,,,,,,,,,,,,,,,,,,,,,,,,,,,,,,,,,,,,,,,,,,,,,,,,,,,,,,,,groceries,-117.1750022,32.7735046
node,365328398,La Mesa,8300,91942,CA,Parkway Drive,,7-Eleven,Q259340,7-Eleven,,,,,,,,,+1 619-461-2855,13647,convenience,,,,https://www.7-eleven.com/locations/ca/la-mesa/8300-parkway-dr-13647,,,,,,,,,yes,yes,yes,SanGIS Addresses Public Domain (http://www.sangis.org/);SanGIS Business Sites Public Domain (http://www.sangis.org/),,,,,,yes,,,,,,,,,,,,,,,,,,,,,,,,,,,,,,,,,,,,,,,,,,,,,,,,,,,,,,,,,,,,,,,,,,,,,,,,,,,,,,,,,,,,,,,,,,,,,,,,,,,,,,,,,,,,,,,,,,,,,,,,,,,,,,,,groceries,-117.0181446,32.7787701
node,365328402,,,,,,,7-Eleven,Q259340,7-Eleven,,,,,,,,,,,convenience,,,,,,,,,,,,,,,,SanGIS Business Sites Public Domain (http://www.sangis.org/),,,,,,,,,,,https://www.7-eleven.com/locations/ca/el-cajon/1522-graves-ave-17637,,,,,,,,,,,,,,,,,,,,,,,,,,,,,,,,,,,,,,,,,,,,,,,,,,,,,,,,,,,,,,,,,,,,,,,,,,,,,,,,,,,,,,,,,,,,,,,,,,,,,,,,,,,,,,,,,,,,,,,,,,,groceries,-116.959515,32.819525
node,365328406,,,,,,,,,7-Eleven,,,,,,,,,,,convenience,,,,,,,,,,,,,,,,SanGIS Business Sites Public Domain (http://www.sangis.org/),,,,,,,,,,,,,,,,,,,,,,,,,,,,,,,,,,,,,,,,,,,,,,,,,,,,,,,,,,,,,,,,,,,,,,,,,,,,,,,,,,,,,,,,,,,,,,,,,,,,,,,,,,,,,,,,,,,,,,,,,,,,,,,,,,,,,,groceries,-117.0200792,32.671641
node,365328410,San Diego,12890,92129-2935,CA,Rancho Penasquitos,,7-Eleven,Q259340,7-Eleven,,,,,,,,,+1 858-484-1739,20170,convenience,,,,https://www.7-eleven.com/locations/ca/san-diego/12890-rancho-penasquitos-20170,,,,,,,,,yes,yes,yes,SanGIS Business Sites Public Domain (http://www.sangis.org/),,,,,,,,yes,,,,,,,,,,,,,,,,,,,,,,,,,,,,,,,,,,,,,,,,,,,,,,,,,,,,,,,,,,,,,,,,,,,,,,,,,,,,,,,,,,,,,,,,,,,,,,,,,,,,,,,,,,,,,,,,,,,,,,,,,,,,,,groceries,-117.1080951,32.9512344
node,365328418,Imperial Beach,197,91932-1017,CA,Palm Avenue,,7-Eleven,Q259340,7-Eleven,,,,,,,,,+1 619-424-8231,13563,convenience,,,,https://www.7-eleven.com/locations/ca/imperial-beach/197-palm-ave-13563,,,,,,,,,yes,yes,yes,SanGIS Business Sites Public Domain (http://www.sangis.org/),,,,,,,,,,,,,,,,,,,,,,,,,,,,,,,,,,,,,,,,,,,,,,,,,,,,,,,,,,,,,,,,,,,,,,,,,,,,,,,,,,,,,,,,,,,,,,,,,,,,,,,,,,,,,,,,,,,,,,,,,,,,,,,,,,,,,,groceries,-117.1297548,32.5836745
node,365328422,Lakeside,10195,92040,,Riverford Road,,7-Eleven,Q259340,7-Eleven,,,,,,,,,,,convenience,,,,,,,,,,,,,,,,SanGIS Addresses Public Domain (http://www.sangis.org/),,,,,US,,,,,,https://www.7-eleven.com/locations/ca/lakeside/10195-riverford-rd-26651,,,,,,,,,,,,,,,,,,,,,,,,,,,,,,,,,,,,,,,,,,,,,,,,,,,,,,,,,,,,,,,,,,,,,,,,,,,,,,,,,,,,,,,,,,,,,,,,,,,,,,,,,,,,,,,,,,,,,,,,,,,groceries,-116.946802,32.861088
node,365328437,San Diego,2406,92104,CA,University Avenue,,7-Eleven,Q259340,7-Eleven,,,,,,,,,+1 619-296-0356,13587,convenience,,,,https://www.7-eleven.com/locations/ca/san-diego/2404-university-13587,,,,,,,,,yes,,yes,SanGIS Business Sites Public Domain (http://www.sangis.org/),,,,,US,,,,,,https://www.7-eleven.com/locations/ca/san-diego/2404-university-ave-13587,,,,,,,,,,,,,,,,,,,,,,,,,,,,,,,,,,,,,,,,,,,,,,,,,,,,,,,,,,,,,,,,,,,,,,,,,,,,,,,,,,,,,,,,,,,,,,,,,,,,,,,,,,,,,,,,,,,,,,,,,,,groceries,-117.138524,32.7487391
node,365328443,Chula Vista,796,91910-5329,CA,BROADWAY,,7-Eleven,Q259340,7-Eleven,,,,,,,,,+1 619-691-8948,13569,convenience,,,,https://www.7-eleven.com/locations/ca/chula-vista/796-broadway-13569,,,,,,,,,yes,yes,yes,SanGIS Business Sites Public Domain (http://www.sangis.org/),,,,,,,,,,,,,,,,,,,,,,,,,,,,,,,,,,,,,,,,,,,,,,,,,,,,,,,,,,,,,,,,,,,,,,,,,,,,,,,,,,,,,,,,,,,,,,,,,,,,,,,,,,,,,,,,,,,,,,,,,,,,,,,,,,,,,,groceries,-117.08585,32.620851
node,365328446,San Diego,14391,92129,CA,Peñasquitos Drive,,7-Eleven,Q259340,7-Eleven,,,,,,,,,+1 858-672-0732,32708,convenience,,,,https://www.7-eleven.com/locations/ca/san-diego/14391-penasquitos-drive-32708,,,,,,,,,yes,,yes,SanGIS Business Sites Public Domain (http://www.sangis.org/),,,,,,,,,,,,,,,,,,,,,,,,,,,,,,,,,,,,,,,,,,,,,,,,,,,,,,,,,,,,,,,,,,,,,,,,,,,,,,,,,,,,,,,,,,,,,,,,,,,,,,,,,,,,,,,,,,,,,,,,,,,,,,,,,,,,,,groceries,-117.0895225,32.9774909
node,365328455,,,,,,,7-Eleven,Q259340,7-Eleven,,,,,,,,,,,convenience,,,,,,,,,,,,,,,,SanGIS Business Sites Public Domain (http://www.sangis.org/),,,,,,,,,,,,,,,,,,,,,,,,,,,,,,,,,,,,,,,,,,,,,,,,,,,,,,,,,,,,,,,,,,,,,,,,,,,,,,,,,,,,,,,,,,,,,,,,,,,,,,,,,,,,,,,,,,,,,,,,,,,,,,,,,,,,,,groceries,-117.247107,32.949507
node,365328458,,,,,,,7-Eleven,Q259340,7-Eleven,,,,,,,,,,,convenience,,,,,,,,,,,,,,,,SanGIS Business Sites Public Domain (http://www.sangis.org/),,,,,,,,,,,https://www.7-eleven.com/locations/ca/san-diego/6571-el-cajon-blvd-20174,,,,,,,,,,,,,,,,,,,,,,,,,,,,,,,,,,,,,,,,,,,,,,,,,,,,,,,,,,,,,,,,,,,,,,,,,,,,,,,,,,,,,,,,,,,,,,,,,,,,,,,,,,,,,,,,,,,,,,,,,,,groceries,-117.0567674,32.7667923
node,365328462,San Diego,3090,92117-6767,CA,Clairemont Drive,,7-Eleven,Q259340,7-Eleven,,,,,,,,,+1 619-276-2691,19663,convenience,,,,https://www.7-eleven.com/locations/ca/san-diego/3090-clairemont-dr-19663,,,,,,,,,yes,yes,yes,SanGIS Business Sites Public Domain (http://www.sangis.org/),,,,,,,,,,,,,,,,,,,,,,,,,,,,,,,,,,,,,,,,,,,,,,,,,,,,,,,,,,,,,,,,,,,,,,,,,,,,,,,,,,,,,,,,,,,,,,,,,,,,,,,,,,,,,,,,,,,,,,,,,,,,,,,,,,,,,,groceries,-117.193547,32.797057
node,365328465,Chula Vista,403,91910-4602,CA,3rd Avenue,,7-Eleven,Q259340,7-Eleven,,,,,,,,,+1 619-426-4252,21792,convenience,,,,https://www.7-eleven.com/locations/ca/chula-vista/403-3rd-ave-21792,,,,,,,,,yes,yes,yes,SanGIS Business Sites Public Domain (http://www.sangis.org/),,,,,,,,,,,,,,,,,,,,,,,,,,,,,,,,,,,,,,,,,,,,,,,,,,,,,,,,,,,,,,,,,,,,,,,,,,,,,,,,,,,,,,,,,,,,,,,,,,,,,,,,,,,,,,,,,,,,,,,,,,,,,,,,,,,,,,groceries,-117.0781089,32.63776
node,365328476,,,,,,,,,7-Eleven,,,,,,,,,,,convenience,,,,,,,,,,,,,,,,SanGIS Business Sites Public Domain (http://www.sangis.org/),,,,,,,,,,,,,,,,,,,,,,,,,,,,,,,,,,,,,,,,,,,,,,,,,,,,,,,,,,,,,,,,,,,,,,,,,,,,,,,,,,,,,,,,,,,,,,,,,,,,,,,,,,,,,,,,,,,,,,,,,,,,,,,,,,,,,,groceries,-117.246295,33.053325
node,365328481,San Diego,432,92103,CA,Spruce Street,,7-Eleven,Q259340,7-Eleven,,,,,,,,,+1 619-295-2696,18710,convenience,,,,https://www.7-eleven.com/locations/ca/san-diego/430-spruce-st-18710,,,,,,,,,yes,,yes,SanGIS Business Sites Public Domain (http://www.sangis.org/),,,,,US,yes,,yes,,,,yes,,,,,,,,,,,,,,,,,,,,,,,,,,,,,,,,,,,,,,,,,,,,,,,,,,,,,,,,,,,,,,,,,,,,,,,,,,,,,,,,,,,,,,,,,,,,,,,,,,,,,,,,,,,,,,,,,,,,,,,,,,groceries,-117.160622,32.739036
node,365328490,San Diego,4919,92105-2110,CA,University Avenue,,7-Eleven,Q259340,7-Eleven,,,,,,,,,+1 619-281-4020,16852,convenience,,,,https://www.7-eleven.com/locations/ca/san-diego/4919-university-ave-16852,,,,,,,,,yes,yes,yes,SanGIS Business Sites Public Domain (http://www.sangis.org/),,,,,,,,,,,,,,,,,,,,,,,,,,,,,,,,,,,,,,,,,,,,,,,,,,,,,,,,,,,,,,,,,,,,,,,,,,,,,,,,,,,,,,,,,,,,,,,,,,,,,,,,,,,,,,,,,,,,,,,,,,,,,,,,,,,,,,groceries,-117.088293,32.749278
node,365328510,Del Mar,13835,92014-3101,CA,Mango Drive,,7-Eleven,Q259340,7-Eleven,,,,,,,,,+1 858-755-3058,13628,convenience,,,,https://www.7-eleven.com/locations/ca/del-mar/13835-mango-dr-13628,,,,,,,,,yes,yes,yes,SanGIS Business Sites Public Domain (http://www.sangis.org/),,,,,,,,yes,,,https://www.7-eleven.com/locations/ca/del-mar/13801-mango-dr-19548,,,,,,,,,,,,,,,,,,,,,,,,,,,,,,,,,,,,,,,,,,,,,,,,,,,,,,,,,,,,,,,,,,,,,,,,,,,,,,,,,,,,,,,,,,,,,,,,,,,,,,,,,,,,,,,,,,,,,,,,,,,groceries,-117.247084,32.949148
node,365328520,San Diego,5150,92110-2601,CA,Linda Vista Road,,7-Eleven,Q259340,7-Eleven,,,,,,,,,+1 619-574-0221,13644,convenience,,,,https://www.7-eleven.com/locations/ca/san-diego/5150-linda-vista-rd-13644,,,,,,,,,yes,yes,yes,SanGIS Business Sites Public Domain (http://www.sangis.org/),,,,,,,,yes,,,,,,,,,,,,,,,,,,,,,,,,,,,,,,,,,,,,,,,,,,,,,,,,,,,,,,,,,,,,,,,,,,,,,,,,,,,,,,,,,,,,,,,,,,,,,,,,,,,,,,,,,,,,,,,,,,,,,,,,,,,,,,groceries,-117.1973403,32.7652358
node,365328542,Chula Vista,285,91910-2319,CA,BROADWAY,,7-Eleven,Q259340,7-Eleven,,,,,,,,,+1 619-427-1402,13570,convenience,,,,https://www.7-eleven.com/locations/ca/chula-vista/285-broadway-13570,,,,,,,,,yes,yes,yes,SanGIS Business Sites Public Domain (http://www.sangis.org/),,,,,,,,,,,,,,,,,,,,,,,,,,,,,,,,,,,,,,,,,,,,,,,,,,,,,,,,,,,,,,,,,,,,,,,,,,,,,,,,,,,,,,,,,,,,,,,,,,,,,,,,,,,,,,,,,,,,,,,,,,,,,,,,,,,,,,groceries,-117.091952,32.638273
node,365328556,San Diego,4527,92109-4920,CA,Mission Bay Drive,,7-Eleven,Q259340,7-Eleven,,,,,,,,,+1 858-270-4833,13598,convenience,,,,https://www.7-eleven.com/locations/ca/san-diego/4527-mission-bay-dr-13598,,,,,,,,,yes,yes,yes,SanGIS Business Sites Public Domain (http://www.sangis.org/),,,,,,,,,,,,,,,,,,,,,,,,,,,,,,,,,,,,,,,,,,,,,,,,,,,,,,,,,,,,,,,,,,,,,,,,,,,,,,,,,,,,,,,,,,,,,,,,,,,,,,,,,,,,,,,,,,,,,,,,,,,,,,,,,,,,,,groceries,-117.215586,32.804259
node,365328568,San Diego,4745,92115-4508,CA,El Cajon Boulevard,,7-Eleven,Q259340,7-Eleven,,,,,,,,,+1 619-282-6562,27744,convenience,,,,https://www.7-eleven.com/locations/ca/san-diego/4745-el-cajon-blvd-27744,,,,,,,,,yes,yes,yes,SanGIS Business Sites Public Domain (http://www.sangis.org/),,,,,,,,,,,,,,,,,,,,,,,,,,,,,,,,,,,,,,,,,,,,,,,,,,,,,,,,,,,,,,,,,,,,,,,,,,,,,,,,,,,,,,,,,,,,,,,,,,,,,,,,,,,,,,,,,,,,,,,,,,,,,,,,,,,,,,groceries,-117.0924114,32.7556653
node,365328577,,,,,,,7-Eleven,Q259340,7-Eleven,,,,,,,,,,,convenience,,,,,,,,,,,,,,,,SanGIS Business Sites Public Domain (http://www.sangis.org/),,,,,,,,,,,https://www.7-eleven.com/locations/ca/san-diego/3792-fourth-ave-19526,,,,,,,,,,,,,,,,,,,,,,,,,,,,,,,,,,,,,,,,,,,,,,,,,,,,,,,,,,,,,,,,,,,,,,,,,,,,,,,,,,,,,,,,,,,,,,,,,,,,,,,,,,,,,,,,,,,,,,,,,,,groceries,-117.1620994,32.7467744
node,365328598,San Diego,15883,92127-2321,CA,Bernardo Center Drive,,7-Eleven,Q259340,7-Eleven,,,,,,,,,+1 858-487-5396,29144,convenience,,,,https://www.7-eleven.com/locations/ca/san-diego/15883-bernardo-center-dr-29144,,,,,,,,,yes,yes,yes,SanGIS Business Sites Public Domain (http://www.sangis.org/),,,,,,,,yes,,,,,,,,,,,,,,,,,,,,,,,,,,,,,,,,,,,,,,,,,,,,,,,,,,,,,,,,,,,,,,,,,,,,,,,,,,,,,,,,,,,,,,,,,,,,,,,,,,,,,,,,,,,,,,,,,,,,,,,,,,,,,,groceries,-117.0906816,33.0051451
node,365328622,San Diego,1906,92109-4502,CA,Balboa Avenue,,7-Eleven,Q259340,7-Eleven,,,,,,,,,+1 858-272-5711,13596,convenience,,,,https://www.7-eleven.com/locations/ca/san-diego/1906-balboa-ave-13596,,,,,,,,,yes,yes,yes,SanGIS Business Sites Public Domain (http://www.sangis.org/),,,,,,,,,,,,,,,,,,,,,,,,,,,,,,,,,,,,,,,,,,,,,,,,,,,,,,,,,,,,,,,,,,,,,,,,,,,,,,,,,,,,,,,,,,,,,,,,,,,,,,,,,,,,,,,,,,,,,,,,,,,,,,,,,,,,,,groceries,-117.2346064,32.7995506
node,365328629,National City,2425,91950-7745,CA,Sweetwater Road,,7-Eleven,Q259340,7-Eleven,,,,,,,,,+1 619-475-7422,13583,convenience,,,,https://www.7-eleven.com/locations/ca/national-city/2425-sweetwater-road-13583,,,,,,,,,yes,yes,yes,SanGIS Business Sites Public Domain (http://www.sangis.org/),,,,,,,,yes,,,,,,,,,,,,,,,,,,,,,,,,,,,,,,,,,,,,,,,,,,,,,,,,,,,,,,,,,,,,,,,,,,,,,,,,,,,,,,,,,,,,,,,,,,,,,,,,,,,,,,,,,,,,,,,,,,,,,,,,,,,,,,groceries,-117.073227,32.660269
node,365328636,,,,,,,7-Eleven,Q259340,7-Eleven,,,,,,,,,,,convenience,,,,,,,,,,,,,,,,SanGIS Business Sites Public Domain (http://www.sangis.org/),,,,,,,,,,,https://www.7-eleven.com/locations/ca/san-diego/2101-fern-st-19628,,,,,,,,,,,,,,,,,,,,,,,,,,,,,,,,,,,,,,,,,,,,,,,,,,,,,,,,,,,,,,,,,,,,,,,,,,,,,,,,,,,,,,,,,,,,,,,,,,,,,,,,,,,,,,,,,,,,,,,,,,,groceries,-117.129336,32.727878
node,365328643,Chula Vista,1097,91911-1868,CA,BROADWAY,,7-Eleven,Q259340,7-Eleven,,,,,,,,,+1 619-422-1943,13590,convenience,,,,https://www.7-eleven.com/locations/ca/chula-vista/1097-broadway-13590,,,,,,,,,yes,yes,yes,SanGIS Business Sites Public Domain (http://www.sangis.org/),,,,,,,,yes,,,,,,,,,,,,,,,,,,,,,,,,,,,,,,,,,,,,,,,,,,,,,,,,,,,,,,,,,,,,,,,,,,,,,,,,,,,,,,,,,,,,,,,,,,,,,,,,,,,,,,,,,,,,,,,,,,,,,,,,,,,,,,groceries,-117.081067,32.610573
node,365328658,San Diego,3436,92116-2430,CA,Adams Avenue,,7-Eleven,Q259340,7-Eleven,,,,,,,,,+1 619-282-5634,21790,convenience,,,,https://www.7-eleven.com/locations/ca/san-diego/3436-adams-ave-21790,,,,,,,,,yes,yes,yes,SanGIS Business Sites Public Domain (http://www.sangis.org/),,,,,,,,yes,,,,,,,,,,,,,,,,,,,,,,,,,,,,,,,,,,,,,,,,,,,,,,,,,,,,,,,,,,,,,,,,,,,,,,,,,,,,,,,,,,,,,,,,,,,,,,,,,,,,,,,,,,,,,,,,,,,,,,,,,,,,,,groceries,-117.119159,32.763593
node,365328677,La Mesa,5640,91942-1618,CA,Baltimore Drive,,7-Eleven,Q259340,7-Eleven,,,,,,,,,+1 619-461-5202,21453,convenience,,,,https://www.7-eleven.com/locations/ca/la-mesa/5650-baltimore-dr-21453,,,,,,,,,yes,,yes,SanGIS Addresses Public Domain (http://www.sangis.org/),,,,,,,,,,,,,,,,,,,,,,,,,,,,,,,,,,,,,,,,,,,,,,,,,,,,,,,,,,,,,,,,,,,,,,,,,,,,,,,,,,,,,,,,,,,,,,,,,,,,,,,,,,,,,,,,,,,,,,,,,,,,,,,,,,,,,,groceries,-117.033674,32.782378
node,365328684,San Diego,9701,92129,CA,Carmel Mountain Road,,7-Eleven,Q259340,7-Eleven,,,,,,,,,+1 858-484-0772,19223,convenience,,,,https://www.7-eleven.com/locations/ca/san-diego/9701-carmel-mt-rd-19223,,,,,,,,,yes,,yes,SanGIS Business Sites Public Domain (http://www.sangis.org/);SanGIS Addresses Public Domain (http://www.sangis.org/),,,,,US,,,,,,,,,,,,,,,,,,,,,,,,,,,,,,,,,,,,,,,,,,,,,,,,,,,,,,,,,,,,,,,,,,,,,,,,,,,,,,,,,,,,,,,,,,,,,,,,,,,,,,,,,,,,,,,,,,,,,,,,,,,,,,,,,groceries,-117.117483,32.9619287
node,365328693,Chula Vista,1475,91911-5550,CA,MELROSE,,7-Eleven,Q259340,7-Eleven,,,,,,,,,+1 619-427-7180,13578,convenience,,,,https://www.7-eleven.com/locations/ca/chula-vista/1475-melrose-13578,,,,,,,,,yes,yes,yes,SanGIS Business Sites Public Domain (http://www.sangis.org/),,,,,,,,yes,,,,,,,,,,,,,,,,,,,,,,,,,,,,,,,,,,,,,,,,,,,,,,,,,,,,,,,,,,,,,,,,,,,,,,,,,,,,,,,,,,,,,,,,,,,,,,,,,,,,,,,,,,,,,,,,,,,,,,,,,,,,,,groceries,-117.039148,32.605689
node,365328709,Encinitas,2240,92024-4345,CA,Encinitas Boulevard,,7-Eleven,Q259340,7-Eleven,,,,,,,,,+1 760-942-2727,21805,convenience,,,,https://www.7-eleven.com/locations/ca/encinitas/2240-encinitas-blvd-21805,,,,,,,,,yes,yes,yes,SanGIS Business Sites Public Domain (http://www.sangis.org/),,,,,,,,yes,,,,,,,,,,,,,,,,,,,,,,,,,,,,,,,,,,,,,,,,,,,,,,,,,,,,,,,,,,,,,,,,,,,,,,,,,,,,,,,,,,,,,,,,,,,,,,,,,,,,,,,,,,,,,,,,,,,,,,,,,,,,,,groceries,-117.2389152,33.0381032
node,365328715,El Cajon,2270,92020-2135,CA,Fletcher Parkway,,7-Eleven,Q259340,7-Eleven,,,,,,,,,+1 619-466-7577,13655,convenience,,,,https://www.7-eleven.com/locations/ca/el-cajon/2270-fletcher-pkwy-13655,,,,,,,,,yes,yes,yes,SanGIS Business Sites Public Domain (http://www.sangis.org/),,,,,,,,,,,,,,,,,,,,,,,,,,,,,,,,,,,,,,,,,,,,,,,,,,,,,,,,,,,,,,,,,,,,,,,,,,,,,,,,,,,,,,,,,,,,,,,,,,,,,,,,,,,,,,,,,,,,,,,,,,,,,,,,,,,,,,groceries,-116.9952748,32.8032953
node,365328722,La Mesa,5255,91942-2081,CA,BALTIMORE,,7-Eleven,Q259340,7-Eleven,,,,,,,,,+1 619-462-6240,16119,convenience,,,,https://www.7-eleven.com/locations/ca/la-mesa/5255-baltimore-16119,,,,,,,,,yes,yes,yes,SanGIS Business Sites Public Domain (http://www.sangis.org/),,,,,,,,,,,,,,,,,,,,,,,,,,,,,,,,,,,,,,,,,,,,,,,,,,,,,,,,,,,,,,,,,,,,,,,,,,,,,,,,,,,,,,,,,,,,,,,,,,,,,,,,,,,,,,,,,,,,,,,,,,,,,,,,,,,,,,groceries,-117.0265696,32.7747166
node,365328765,,,,,,,7-Eleven,Q259340,7-Eleven,,,,,,,,,,,convenience,,,,,,,,,,,,,,,,SanGIS Business Sites Public Domain (http://www.sangis.org/),,,,,,,,,,,,,,,,,,,,,,,,,,,,,,,,,,,,,,,,,,,,,,,,,,,,,,,,,,,,,,,,,,,,,,,,,,,,,,,,,,,,,,,,,,,,,,,,,,,,,,,,,,,,,,,,,,,,,,,,,,,,,,,,,,,,,,groceries,-117.159554,32.716594
node,365328791,National City,1601,91950-5008,CA,East 18th Street,,7-Eleven,Q259340,7-Eleven,,,,,,,,,+1 619-477-5875,17265,convenience,,,,https://www.7-eleven.com/locations/ca/national-city/1601-east-18th-st-17265,,,,,,,,,yes,yes,yes,SanGIS Business Sites Public Domain (http://www.sangis.org/),,,,,,,,,,,,,,,,,,,,,,,,,,,,,,,,,,,,,,,,,,,,,,,,,,,,,,,,,,,,,,,,,,,,,,,,,,,,,,,,,,,,,,,,,,,,,,,,,,,,,,,,,,,,,,,,,,,,,,,,,,,,,,,,,,,,,,groceries,-117.087081,32.672127
node,365328814,San Diego,1602,92103,,University Avenue,,7-Eleven,Q259340,7-Eleven,,,,,,,,,,,convenience,,,,,,,,,,,,,yes,,,SanGIS Business Sites Public Domain (http://www.sangis.org/),,,,,US,,,,,,https://www.7-eleven.com/locations/ca/san-diego/1602-university-ave-20551,,,,,,,,,,,,,,,,,,,,,,,,,,,,,,,,,,,,,,,,,,,,,,,,,,,,,,,,,,,,,,,,,,,,,,,,,,,,,,,,,,,,,,,,,,,,,,,,,,,,,,,,,,,,,,,,,,,,,,,,,,,groceries,-117.149257,32.748675
node,365328823,National City,15,91950-1933,CA,North Euclid Avenue,,7-Eleven,Q259340,7-Eleven,,,,,,,,,+1 619-264-0110,13564,convenience,,,,https://www.7-eleven.com/locations/ca/national-city/15-north-euclid-ave-13564,,,,,,,,,yes,yes,yes,SanGIS Business Sites Public Domain (http://www.sangis.org/),,,,,,,,,,,,,This looks residential from the satellite. Please verify location.,,,,,,,,,,,,,,,,,,,,,,,,,,,,,,,,,,,,,,,,,,,,,,,,,,,,,,,,,,,,,,,,,,,,,,,,,,,,,,,,,,,,,,,,,,,,,,,,,,,,,,,,,,,,,,,,,,,,,,,,,groceries,-117.0847214,32.6903195
node,365328835,Poway,13626,92064,CA,Pomerado Road,,7-Eleven,Q259340,7-Eleven,,,,,,,,,+1 858-748-0711,13624,convenience,,,,https://www.7-eleven.com/locations/ca/poway/13626-pomerado-rd-13624,,,,,,,,,yes,yes,yes,SanGIS Addresses Public Domain (http://www.sangis.org/);SanGIS Business Sites Public Domain (http://www.sangis.org/),,,,,US,,,,,,,,,,,,,,,,,,,,,,,,,,,,,,,,,,,,,,,,,,,,,,,,,,,,,,,,,,,,,,,,,,,,,,,,,,,,,,,,,,,,,,,,,,,,,,,,,,,,,,,,,,,,,,,,,,,,,,,,,,,,,,,,,groceries,-117.0629888,32.9617688
node,365328848,San Diego,16703,92128,CA,Bernardo Center Drive,,7-Eleven,Q259340,7-Eleven,,,,,,,,,+1 858-487-7430,19883,convenience,,,,https://www.7-eleven.com/locations/ca/san-diego/16703-bernardo-ctr-dr-19883,,,,,,,,,yes,yes,yes,SanGIS Business Sites Public Domain (http://www.sangis.org/),,,,,US,,,,,,,,,San Diego,,,,,,,,,,,,,,,,,,,,,,,,,,,,,,,,,,,,,,,,,,,,,,,,,,,,,,,,,,,,,,,,,,,,,,,,,,,,,,,,,,,,,,,,,,,,,,,,,,,,,,,,,,,,,,,,,,,,,,,,groceries,-117.07518,33.0168929
node,365328857,,,,,,,7-Eleven,Q259340,7-Eleven,,,,,,,,,,,convenience,,,,,,,,,,,,,,,,SanGIS Business Sites Public Domain (http://www.sangis.org/),,,,,,,,,,,https://www.7-eleven.com/locations/ca/imperial-beach/1303-imperial-beach-blvd-23982,,,,,,,,,,,,,,,,,,,,,,,,,,,,,,,,,,,,,,,,,,,,,,,,,,,,,,,,,,,,,,,,,,,,,,,,,,,,,,,,,,,,,,,,,,,,,,,,,,,,,,,,,,,,,,,,,,,,,,,,,,,groceries,-117.10533,32.5761597
node,365328868,San Diego,6991,92115-1739,CA,El Cajon Boulevard,,7-Eleven,Q259340,7-Eleven,,,,,,,,,+1 619-462-1711,21794,convenience,,,,https://www.7-eleven.com/locations/ca/san-diego/6991-el-cajon-blvd-21794,,,,,,,,,yes,yes,yes,SanGIS Business Sites Public Domain (http://www.sangis.org/),,,,,,,,,,,,,,,,,,,,,,,,,,,,,,,,,,,,,,,,,,,,,,,,,,,,,,,,,,,,,,,,,,,,,,,,,,,,,,,,,,,,,,,,,,,,,,,,,,,,,,,,,,,,,,,,,,,,,,,,,,,,,,,,,,,,,,groceries,-117.047358,32.7682849
node,365328876,San Diego,2920;2918,92110-5725;92110,CA,Adrian Street,,7-Eleven,Q259340,7-Eleven,,,,,,,,,+1 619-224-7979,13642,convenience,,,,https://www.7-eleven.com/locations/ca/san-diego/2920-adrian-st-13642,,,,,,,,,yes,yes,yes,SanGIS Business Sites Public Domain (http://www.sangis.org/);SanGIS Addresses Public Domain (http://www.sangis.org/),,,,,,,,,,,,,,,,,,,,,,,,,,,,,,,,,,,,,,,,,,,,,,,,,,,,,,,,,,,,,,,,,,,,,,,,,,,,,,,,,,,,,,,,,,,,,,,,,,,,,,,,,,,,,,,,,,,,,,,,,,,,,,,,,,,,,,groceries,-117.2265914,32.7520119
node,365328886,National City,2400,91950-7003,CA,Highland Avenue,,7-Eleven,Q259340,7-Eleven,,,,,,,,,+1 619-474-1483,20785,convenience,,,,https://www.7-eleven.com/locations/ca/national-city/2400-highland-ave-20785,,,,,,,,,yes,yes,yes,SanGIS Business Sites Public Domain (http://www.sangis.org/),,,,,,,,,,,,,,,,,,,,,,,,,,,,,,,,,,,,,,,,,,,,,,,,,,,,,,,,,,,,,,,,,,,,,,,,,,,,,,,,,,,,,,,,,,,,,,,,,,,,,,,,,,,,,,,,,,,,,,,,,,,,,,,,,,,,,,groceries,-117.093547,32.663983
node,365328899,San Diego,3019,92116-4325,CA,Meade Avenue,,7-Eleven,Q259340,7-Eleven,,,,,,,,,+1 619-282-5635,21799,convenience,,,,https://www.7-eleven.com/locations/ca/san-diego/3019-meade-ave-21799,,,,,,,,,yes,yes,yes,,,,,,,,,,,,,,,,,,,,,,,,,,,,,,,,,,,,,,,,,,,,,,,,,,,,,,,,,,,,,,,,,,,,,,,,,,,,,,,,,,,,,,,,,,,,,,,,,,,,,,,,,,,,,,,,,,,,,,,,,,,,,,,,,,,,,,,groceries,-117.1297689,32.7570324
node,365328911,San Diego,1702,92105,,Gateway Drive,,7-Eleven,Q259340,7-Eleven,,,,,,,,,,,convenience,,,,,,,,,,,,,,,,SanGIS Addresses Public Domain (http://www.sangis.org/);SanGIS Business Sites Public Domain (http://www.sangis.org/),,,,,US,,,,,,https://www.7-eleven.com/locations/ca/san-diego/1702-gateway-drive-24155,,,,,,,,,,,,,,,,,,,,,,,,,,,,,,,,,,,,,,,,,,,,,,,,,,,,,,,,,,,,,,,,,,,,,,,,,,,,,,,,,,,,,,,,,,,,,,,,,,,,,,,,,,,,,,,,,,,,,,,,,,,groceries,-117.108062,32.7231487
node,365328917,San Diego,2509,92154-2143,CA,Coronado Avenue,,7-Eleven,Q259340,7-Eleven,,,,,,,,,+1 619-424-8475,29370,convenience,,,,https://www.7-eleven.com/locations/ca/san-diego/2509-coronado-ave-29370,,,,,,,,,yes,yes,yes,SanGIS Business Sites Public Domain (http://www.sangis.org/),,,,,,,,yes,,,,,,,,,,,,,,,,,,,,,,,,,,,,,,,,,,,,,,,,,,,,,,,,,,,,,,,,,,,,,,,,,,,,,,,,,,,,,,,,,,,,,,,,,,,,,,,,,,,,,,,,,,,,,,,,,,,,,,,,,,,,,,groceries,-117.079292,32.576172
node,365328923,Spring Valley,2840,91977-3315,CA,Bancroft Drive,,7-Eleven,Q259340,7-Eleven,,,,,,,,,+1 619-460-7263,13571,convenience,,,,https://www.7-eleven.com/locations/ca/spring-valley/2840-bancroft-dr-13571,,,,,,,,,yes,yes,yes,SanGIS Business Sites Public Domain (http://www.sangis.org/),,,,,,,,,,,,,,,,,,,,,,,,,,,,,,,,,,,,,,,,,,,,,,,,,,,,,,,,,,,,,,,,,,,,,,,,,,,,,,,,,,,,,,,,,,,,,,,,,,,,,,,,,,,,,,,,,,,,,,,,,,,,,,,,,,,,,,groceries,-117.006782,32.7363179
node,365328927,San Diego,4205,92107-1709;92107,CA,Voltaire Street,,7-Eleven,Q259340,7-Eleven,24/7,,,,,,,,+1 619-222-7060,18824,convenience,,,,https://www.7-eleven.com/locations/ca/san-diego/4205-voltaire-st-18824,,,,,,,,,yes,yes,yes,SanGIS Business Sites Public Domain (http://www.sangis.org/);SanGIS Addresses Public Domain (http://www.sangis.org/),,,,,,yes,,,,,,,,,,,,,,,,,,,,,,,,,,,,,,,,,,,,,,,,,,,,,,,,,,,,,,,,,,,,,,,,,,,,,,,,,,,,,,,,,,,,,,,,,,,,,,,,,,,,,,,,,,,,,,,,,,,,,,,,,,,,,,,,groceries,-117.2353277,32.7437437
node,365328935,San Diego,4111,92110,CA,West Point Loma Boulevard,,7-Eleven,Q259340,7-Eleven,,,,,,,,,+1 619-225-8744,20100,convenience,,,,https://www.7-eleven.com/locations/ca/san-diego/4101-w.-point-loma-blvd-20100,,,,,,,,,yes,,yes,SanGIS Business Sites Public Domain (http://www.sangis.org/);SanGIS Addresses Public Domain (http://www.sangis.org/),,,,,,,,,,,https://www.7-eleven.com/locations/ca/san-diego/4101-w-point-loma-blvd-20100,,,,,,,,,,,,,,,,,,,,,,,,,,,,,,,,,,,,,,,,,,,,,,,,,,,,,,,,,,,,,,,,,,,,,,,,,,,,,,,,,,,,,,,,,,,,,,,,,,,,,,,,,,,,,,,,,,,,,,,,,,,groceries,-117.2235609,32.7533359
node,365328948,Lemon Grove,7607,91945-1607,CA,BROADWAY,,7-Eleven,Q259340,7-Eleven,,,,,,,,,+1 619-469-8667,24013,convenience,,,,https://www.7-eleven.com/locations/ca/lemon-grove/7607-broadway-24013,,,,,,,,,yes,yes,yes,SanGIS Business Sites Public Domain (http://www.sangis.org/),,,,,,,,,,,,,,,,,,,,,,,,,,,,,,,,,,,,,,,,,,,,,,,,,,,,,,,,,,,,,,,,,,,,,,,,,,,,,,,,,,,,,,,,,,,,,,,,,,,,,,,,,,,,,,,,,,,,,,,,,,,,,,,,,,,,,,groceries,-117.034019,32.7423195
node,365328953,,,,,,,,,7-Eleven,,,,,,,,,,,convenience,,,,,,,,,,,,,,,,SanGIS Business Sites Public Domain (http://www.sangis.org/),,,,,,,,,,,,,,,,,,,,,,,,,,,,,,,,,,,,,,,,,,,,,,,,,,,,,,,,,,,,,,,,,,,,,,,,,,,,,,,,,,,,,,,,,,,,,,,,,,,,,,,,,,,,,,,,,,,,,,,,,,,,,,,,,,,,,,groceries,-117.0785525,32.5647223
node,365328962,Santee,9111,92071,,Mission Gorge Road,,7-Eleven,Q259340,7-Eleven,,,,,,,,,,,convenience,,,,,,,,,,,,,,,,SanGIS Addresses Public Domain (http://www.sangis.org/),,,,,US,,,,,,https://www.7-eleven.com/locations/ca/santee/9111-mission-gorge-rd-19006,,,,,,,,,,,,,,,,,,,,,,,,,,,,,,,,,,,,,,,,,,,,,,,,,,,,,,,,,,,,,,,,,,,,,,,,,,,,,,,,,,,,,,,,,,,,,,,,,,,,,,,,,,,,,,,,,,,,,,,,,,,groceries,-117.0003667,32.8382026
node,444159684,San Diego,2401,92106,CA,Truxtun Road,San Diego - Point Loma,Trader Joe's,Q688825,Trader Joe's,Mo-Su 08:00-21:00,,yes,,,,,,+1 619-758-9272,188,supermarket,,,,https://locations.traderjoes.com/ca/san-diego/188/,,,,,,,,,,,,,,,,,,,,,yes,,,,,,,,,,,,,,,,,,,,,,,,,,,,,,,,,,,,,,,,,,,,,,,,,,,,,,,,,,,,,,,,,,,,,,,,,,,,,,,,,,,,,,,,,,,,,,,,,,,,,,,,,,,,,,,,,,,,,,,,,,,,,groceries,-117.2173712,32.736068
node,446002020,,,,,,,,,,,,,,,,,,,,bakery,,,,,,,,,,,,,,,,,,,,,,,,,,,,,,,,,,,,,,,,,,,,,,,,,,,,,,,,,,,,,,,,,,,,,,,,,,,,,,,,,,,,,,,,,,,,,,,,,,,,,,,,,,,,,,,,,,,,,,,,,,,,,,,,,,,,,,,,,,,,,,,,,,,,,,groceries,-117.2373114,32.8013258
node,448035985,,,,,,,,,Sprouts,,,,,,,,,,,supermarket,,,,,,,,,,,,,,,,,,,,,,,,,,,,,,,,,,,,,,,,,,,,,,,,,,,,,,,,,,,,,,,,,,,,,,,,,,,,,,,,,,,,,,,,,,,,,,,,,,,,,,,,,,,,,,,,,,,,,,,,,,,,,,,,,,,,,,,,,,,,,,,,,,,,,,groceries,-117.2469667,32.7987241
node,451964738,La Costa,3243,92009,CA,Camino De Los Coches,Rancho Santa Fe,Sprouts Farmers Market,Q7581369,Sprouts Farmers Market,Mo-Su 07:00-22:00,,,,,,,,+1 760-635-0625,,supermarket,,,,https://www.sprouts.com/store/ca/carlsbad/carlsbad-rancho-santa-fe/,,,,,,,,,,,,,,,,,,,,,,,,,,,,,,,,,,,,,,,,,,,,,,,,,,,,,,,,,,,,,,,,,,,,,,,,,,,,,,,,,,,,,,,,,,,,,,,,,,,,,,,,,,,,,,,,,,,,,,,,,,,,,,,,,,,,,,,,,,,,,,,,,,groceries,-117.2387789,33.0749554
node,454844002,San Diego,4765,92107,CA,Voltaire Street,,,,Ocean Beach People's Organic Food Market,Mo-Su 08:00-21:00,,yes,,,yes,,yes,+1 619 224 1387,,supermarket,,,,https://www.obpeoplesfood.coop,,,,,yes,only,,,,,,,,,,,,yes,,,yes,yes,,,,,Ocean Beach People’s Co-op,only,yes,,,,,,,,,,,,,,,,,,,,,,,,,,,,,,,,,,,,,,,,,,,,,,,,,,,,,,,,,,,,,,,,,,,,,,,,,,,,,,,,,,,,,,,,,,,,,,,,,,,,,,,,,,,,,,,,,,,,,groceries,-117.242901,32.7495327
node,530764048,San Diego,600,92101-2211,CA,West Grape,,7-Eleven,Q259340,7-Eleven,,,,,,,,,+1 619-501-9278,33555,convenience,,,,https://www.7-eleven.com/locations/ca/san-diego/600-w.-grape-33555,,,,,,,,,yes,yes,yes,,,,,,,,,yes,,,https://www.7-eleven.com/locations/ca/san-diego/600-w-grape-33555,,,,,,,,,,,,,,,,,,,,,,,,,,,,,,,,,,,,,,,,,,,,,,,,,,,,,,,,,,,,,,,,,,,,,,,,,,,,,,,,,,,,,,,,,,,,,,,,,,,,,,,,,,,,,,,,,,,,,,,,,,,groceries,-117.1688936,32.7255823
node,530764099,,,,,,,,,Mona Lisa,,,,,,,,,,,supermarket,,,,,,,,,,,,,,,,,,,,,,,,,,,,,,,,,,,,,,,,,,,,,,,,,,,,,,,,,,,,,,,,,,,,,,,,,,,,,,,,,,,,,,,,,,,,,,,,,,,,,,,,,,,,,,,,,,,,,,,,,,,,,,,,,,,,,,,,,,,,,,,,,,,,,,groceries,-117.1691081,32.726261
node,565513431,San Diego,1469,92101-3421,CA,State Street,,7-Eleven,Q259340,7-Eleven,,,,,,,,,+1 619-696-9517,34184,convenience,,,,https://www.7-eleven.com/locations/ca/san-diego/1469-state-st-34184,,,,,,,,,yes,yes,yes,,,,,,,,,,,,,,,,,,,,,,,,,,,,,,,,,,,,,,,,,,,,,,,,,,,,,,,,,,,,,,,,,,,,,,,,,,,,,,,,,,,,,,,,,,,,,,,,,,,,,,,,,,,,,,,,,,,,,,,,,,,,,,,,,,,,,,,groceries,-117.166342,32.720787
node,566468186,,,,,,,,,Mr. D's,,,,,,,,,,,convenience,,,,,,,,,,,,,,,,,,,,,,,,,,,,,,,,,,,,,,,,,,,,,,,,,,,,,,,,,,,,,,,,,,,,,,,,,,,,,,,,,,,,,,,,,,,,,,,,,,,,,,,,,,,,,,,,,,,,,,,,,,,,,,,,,,,,,,,,,,,,,,,,,,,,,,groceries,-117.0191607,32.7650657
node,596030433,San Ysidro,3155,92173,,Iris Avenue,,,,Liva Food Distributor,,,,,,,,,,,supermarket,,,,,,,,,,,,,,,,SanGIS Addresses Public Domain (http://www.sangis.org/),,,,,US,,,,,,,,,,,,,,,,,,,,,,,,,,,,,,,,,,,,,,,,,,,,,,,,,,,,,,,,,,,,,,,,,,,,,,,,,,,,,,,,,,,,,,,,,,,,,,,,,,,,,,,,,,,,,,,,,,,,,,,,,,,,,,,,,groceries,-117.06431,32.568926
node,596071778,Santee,9822,92071,,Prospect Avenue,,76,Q1658320,76,,,,,,,,,,,convenience,,,,,,,,,,,,,,,,SanGIS Addresses Public Domain (http://www.sangis.org/),,,,,US,,,,,,,,,,,,,,,,,,,,,,,,,,,,,,,,,,,,,,,,,,,,,,,,,,,,,,,,,,,,,,,,,,,,,,,,,,,,,,,,,,,,,,,,,,,,,,,,,,,,,,,,,,,,,,,,,,,,,,,,,,,,,,,,,groceries,-116.983094,32.83171
node,596095044,San Diego,1749,92101,,India Street,,,,Cash & Carry Italian Market,Mo-Su 09:00-21:30,,,,,,,,+1-619-232-1346,,supermarket,,,,https://realcheesepizza.com/italian-market,,,,,,,,,,,,SanGIS Addresses Public Domain (http://www.sangis.org/),,,,,US,,,,,,,,,,,,,yes,Filippi's Pizza Grotto,,,,,,,,,,,,,,,,,,,,,,,,,,,,,,,,,,,,,,,,,,,,,,,,,,,,,,,,,,,,,,,,,,,,,,,,,,,,,,,,,,,,,,,,,,,,,,,,,,,,,,,,,,,,,,,,,,,groceries,-117.1682448,32.7237164
node,596125839,Spring Valley,10049,91977,CA,Campo Road,,7-Eleven,Q259340,7-Eleven,,,,,,,,,+1 619-670-7100,13575,convenience,,,,https://www.7-eleven.com/locations/ca/spring-valley/10049-campo-rd-13575,,,,,,,,,yes,yes,yes,SanGIS Addresses Public Domain (http://www.sangis.org/);SanGIS Business Sites Public Domain (http://www.sangis.org/),,,,,US,,,,,,,,,,,,,,,,,,,,,,,,,,,,,,,,,,,,,,,,,,,,,,,,,,,,,,,,,,,,,,,,,,,,,,,,,,,,,,,,,,,,,,,,,,,,,,,,,,,,,,,,,,,,,,,,,,,,,,,,,,,,,,,,,groceries,-116.9783958,32.7471679
node,596140109,San Diego,4202,92117,CA,Clairemont Mesa Boulevard,,Speedway,Q7575683,Speedway,24/7,,,,,,,,+1 858-483-3750,3780,convenience,,,,https://www.speedway.com/locations/CA/San-Diego/4202-CLAIREMONT-MESA-BLVD,,,,,,,,,,,,SanGIS Addresses Public Domain (http://www.sangis.org/),,,,,US,,,,,,,,,,,,,,,,,,,,,,,,,,,,,,,,,,,,,,,,,,,,,,,,,,,,,,,,,,,,,,,,,,,,,,,,,,,,,,,,,,,,,,,,,,,,,,,,,,,,,,,,,,,,,,,,,,,,,,,,,,,,,,,,,groceries,-117.202013,32.8316018
node,596161862,El Cajon,1090,92020,CA,North Marshall Avenue,,Smart & Final,Q7543916,Smart & Final Extra!,,,,,,,,,+1-619-562-4151,,supermarket,,,,https://www.smartandfinal.com/stores/7985,,,,,,,,,,,,SanGIS Addresses Public Domain (http://www.sangis.org/),,,,,,,,,,,,,,,,,,,,,,,,,,,,,,,,,,,,,,,,,,,,,,,,,,,,,,,,,,,,,,,,,,,,,,,,,,,,,,,,,,,,,,,,,,,,,,,,,,,,,,,,,,,,,,,,,,,,,,,,,,,,,,,,,,,,,,groceries,-116.974953,32.8081859
node,596199536,Lakeside,11610,92040,,Riverside Drive,,,,,,,,,,,,,,,convenience,,,,,,,,,,,,,,,,,,,,,US,,,,,,,,,,,,,,,,,,,,,,,,,,,,,,,,,,,,,,,,,,,,,,,,,,,,,,,,,,,,,,,,,,,,,,,,,,,,,,,,,,,,,,,,,,,,,,,,,,,,,,,,,,,,,,,,,,,,,,,,,,,,,,,,,groceries,-116.9426975,32.8628048
node,596252602,El Cajon,135,92020,CA,West Bradley Avenue,,,,ARCO,,,,,,,,,,,convenience,,,,,,,,,,,,,,,,SanGIS Addresses Public Domain (http://www.sangis.org/),,,,,US,,,,,,,,,,,,,,,,,,,,,,,,,,,,,,,,,,,,,,,,,,,,,,,,,,,,,,,,,,,,,,,,,,,,,,,,,,,,,,,,,,,,,,,,,,,,,,,,,,,,,,,,,,,,,,,,,,,,,,,,,,,,,,,,,groceries,-116.9629678,32.8185081
node,596273414,El Cajon,1525,92020,CA,North Magnolia Avenue,,Speedway,Q7575683,Speedway,,,,,,,,,,3785,convenience,,,,,,,,,,,,,,,,SanGIS Addresses Public Domain (http://www.sangis.org/),,,,,US,,,,,,,,,,,,,,,,,,,,,,,,,,,,,,,,,,,,,,,,,,,,,,,,,,,,,,,,,,,,,,,,,,,,,,,,,,,,,,,,,,,,,,,,,,,,,,,,,,,,,,,,,,,,,,,,,,,,,,,,,,,,,,,,,groceries,-116.9618648,32.8187459
node,596327872,San Diego,5403,92105,CA,University Avenue,,Northgate Market,Q124810943,Northgate Market,Mo-Su 07:00-22:00,yes,yes,,yes,yes,,yes,+1 619-265-9701,36,supermarket,yes,permissive,no,https://www.northgatemarket.com,,,,,,,,,,,,SanGIS Addresses Public Domain (http://www.sangis.org/),,https://www.facebook.com/NorthgateMarket,,,US,,,,,,,,,,,,,,,,,https://www.instagram.com/northgatemarket,,,,,,,,,,,,,,,,,,,,,,,,,,,,,,,,,,,,,,,,,,,,,,,,,,,,,,,,,,,,,,,,,,,,,,,,,,,,,,,,,,,,,,,,,,,,,,,,,,,,,,,,,,,,,,,,groceries,-117.0781888,32.74713
node,596335189,San Diego,2003,92102,,30th Street,,,,Kim's Liquor,,,,,,,,,,,convenience,,,,,,,,,,,,,,,,SanGIS Addresses Public Domain (http://www.sangis.org/),,,,,US,,,,,,,,,,,,,,,,,,,,,,,,,,,,,,,,,,,,,,,,,,,,,,,,,,,,,,,,,,,,,,,,,,,,,,,,,,,,,,,,,,,,,,,,,,,,,,,,,,,,,,,,,,,,,,,,,,,,,,,,,,,,,,,,,groceries,-117.129873,32.726697
node,596377200,Chula Vista,1177,91911,CA,Broadway,,,,PESCADOS Y MARISCOS,,,,,,,,,,,supermarket,,,,,,,,,,,,,,,,SanGIS Addresses Public Domain (http://www.sangis.org/),,,,,US,,,,,,,,,,,,,,PESCADOS Y MARISCOS,,,,,,,,,,,,,,,,,,,,,,,,,,,,,,,,,,,,,,,,,,,,,,,,,,,,,,,,,,,,,,,,,,,,,,,,,,,,,,,,,,,,,,,,,,,,,,,,,,,,,,,,,,,,,,,,,,,groceries,-117.080051,32.608312
node,596429698,San Diego,11875,92128,CA,Carmel Mountain Road,Carmel Mountain Ranch Town Center,Ralphs,Q3929820,Ralphs,Mo-Su 06:00-01:00,,,,,,,,+1 858-451-8376,70300019,supermarket,,,,https://www.ralphs.com/stores/grocery/ca/san-diego/carmel-mtn-ranch-town-center/703/00019,,,,,,,,,,,,,,,,,,,,,,,,,,,,,,,,,,,,,,,,,,,,,,,,,,,,,,,,,,,,,,,,,,,,,,,,,,,,,,,,,,,,,,,,,,,,,,,,,,,,,,,,,,,,,,,,,,,,,,,,,,,,,,,,,,,,,,,,,,,,,,,,,,groceries,-117.075652,32.9810455
node,596446006,Chula Vista,3141,91911,CA,Main Street,,Smart & Final,Q7543916,Smart & Final,,,,,,,,,,,supermarket,,,,,,,,,,,,,,,,SanGIS Addresses Public Domain (http://www.sangis.org/),,,,,US,,,,,,,,,,,,,,,,,,,,,,,,,,,,,,,,,,,,,,,,,,,,,,,,,,,,,,,,,,,,,,,,,,,,,,,,,,,,,,,,,,,,,,,,,,,,,,,,,,,,,,,,,,,,,,,,,,,,,,,,,,,,,,,,,groceries,-117.0658731,32.5939906
node,596465477,San Diego,6403,92120,,Mission Gorge Road,,7-Eleven,Q259340,7-Eleven,,,,,,,,,,,convenience,,,,,,,,,,,,,,,,SanGIS Addresses Public Domain (http://www.sangis.org/);SanGIS Business Sites Public Domain (http://www.sangis.org/),,,,,US,,,,,,https://www.7-eleven.com/locations/ca/san-diego/6401-mission-gorge-rd-27623,,,,,,,,,,,,,,,,,,,,,,,,,,,,,,,,,,,,,,,,,,,,,,,,,,,,,,,,,,,,,,,,,,,,,,,,,,,,,,,,,,,,,,,,,,,,,,,,,,,,,,,,,,,,,,,,,,,,,,,,,,,groceries,-117.0972297,32.7900207
node,596511296,National City,1631,91950,,East 8th Street,,,,Valerio's City Bakery,Mo-Su 06:00-17:00,,,,,,,,+1-619-477-8588,,bakery,,,,https://www.valeriosbakery.com/,,,,,,,,,,,,SanGIS Addresses Public Domain (http://www.sangis.org/),,,,,US,,,,,,,,,,,,,,,,,,,,,,,,,,,,,,,,,,,,,,,,,,,,,,,,,,,,,,,,,,,,,,,,,,,,,,,,,,,,,,,,,,,,,,,,,,,,,,,,,,,,,,,,,,,,,,,,,,,,,,,,,,,,,,,,,groceries,-117.089801,32.681013
node,596524679,Chula Vista,1295,91911,,3rd Avenue,,,,Top Fuel,,,,,,,,,,,convenience,,,,,,,,,,,,,,,,SanGIS Addresses Public Domain (http://www.sangis.org/),,,,,US,,,,,,,,,,,,,,,fuel,,,yes,yes,yes,yes,,,,,,,,,,,,,,,,,,,,,,,,,,,,,,,,,,,,,,,,,,,,,,,,,,,,,,,,,,,,,,,,,,,,,,,,,,,,,,,,,,,,,,,,,,,,,,,,,,,,,,,,,,,,groceries,-117.066189,32.60718
node,596544388,Chula Vista,1725,91911,CA,Broadway,,ampm,Q306960,ampm,,,,,,,,,,,convenience,,,,,,,,,,,,,,,,20140302 site visit,,,,,US,,,,,,,,,,,,,,,,,,,,,,Arco gas too.,,,,,,,,,,,,,,,,,,,,,,,,,,,,,,,,,,,,,,,,,,,,,,,,,,,,,,,,,,,,,,,,,,,,,,,,,,,,,,,,,,,,,,,,,,,,,,,,,,,,,,,,,,,groceries,-117.074713,32.5943616
node,596551194,San Diego,3385,92123,,Sandrock Road,,7-Eleven,Q259340,7-Eleven,,,,,,,,,,,convenience,,,,,,,,,,,,,,,,SanGIS Addresses Public Domain (http://www.sangis.org/),,,,,US,,,,,,https://www.7-eleven.com/locations/ca/san-diego/3385-sand-rock-rd-25165,,,,,,,,,,,,,,,,,,,,,,,,,,,,,,,,,,,,,,,,,,,,,,,,,,,,,,,,,,,,,,,,,,,,,,,,,,,,,,,,,,,,,,,,,,,,,,,,,,,,,,,,,,,,,,,,,,,,,,,,,,,groceries,-117.1397376,32.804725
node,596577873,San Diego,4001,92110,,West Point Loma Boulevard,,,,Barons Market,Mo-Su 08:00-21:00,,yes,,,,,,+1 619 2234397,,supermarket,,,,,,,,,,,,,,,,SanGIS Addresses Public Domain (http://www.sangis.org/),,,,,,,,,yes,,,,,,,,,,,,,,,,,,,,,,,,,,,,,,,,,,,,,,,,,,,,,,,,,,,,,,,,,,,,,,,,,,,,,,,,,,,,,,,,,,,,,,,,,,,,,,,,,,,,,,,,,,,,,,,,,,,,,,,,,,,,,groceries,-117.222341,32.7534505
node,596624465,San Diego,3661,92106,,Voltaire Street,,,,European Cake Gallery,Tu-Sa 07:00-16:00,,,,,,,,,,bakery,,,,https://europeancakegallery.com/,,,,,,,,,,,,SanGIS Addresses Public Domain (http://www.sangis.org/),,,,,,,,,,,,,,,,,,,,,,,,,,,,,,,,,,,,,,,,,,,,,,,,,,,,,,,,,,,,,,,,,,,,,,,,,,,,,,,,,,,,,,,,,,,,,,,,,,,,,,,,,,,,,,,,,,,,,,,,,,,,,,,,,,,,,,groceries,-117.22842,32.739505
node,596672894,La Mesa,7006,91941,CA,University Avenue,,7-Eleven,Q259340,7-Eleven,24/7,,,,,,,,+1 619-589-0936,36812,convenience,,,,https://www.7-eleven.com/locations/ca/la-mesa/7006-university-ave-36812,,,,,,,,,yes,,yes,SanGIS Addresses Public Domain (http://www.sangis.org/),,,,,US,,,,,,,,,,,,,,,,,,,,,,,,,,,,,,,,,,,,,,,,,,,,,,,,,,,,,,,,,,,,,,,,,,,,,,,,,,,,,,,,,,,,,,,,,,,,,,,,,,,,,,,,,,,,,,,,,,,,,,,,,,,,,,,,,groceries,-117.0472399,32.755579
node,596680018,Spring Valley,4010,91977,,Citradora Drive,,,,,,,,,,,,,,,convenience,,,,,,,,,,,,,,,,SanGIS Addresses Public Domain (http://www.sangis.org/),,,,,,,,,,,,,,,,,,,,,,,,,,,,,,,,,,,,,,,,,,,,,,,,,,,,,,,,,,,,,,,,,,,,,,,,,,,,,,,,,,,,,,,,,,,,,,,,,,,,,,,,,,,,,,,,,,,,,,,,,,,,,,,,,,,,,,groceries,-117.0009797,32.7516822
node,596708417,San Diego,3206,92104,,Thorn Street,,,,Holiday Market,,,,,,,,,,,convenience,,,,,,,,,,,,,,,,SanGIS Addresses Public Domain (http://www.sangis.org/),,,,,US,,,,,,,,,,,,,,,,,,,,,,,,,,,,,,,,,,,,,,,,,,,,,,,,,,,,,,,,,,,,,,,,,,,,,,,,,,,,,,,,,,,,,,,,,,,,,,,,,,,,,,,,,,,,,,,,,,,,,,,,,,,,,,,,,groceries,-117.1248315,32.7394027
node,596713724,El Cajon,1365,92019,CA,East Main Street,,,,Garcia's Puebla Mercado,,,,,,,,,,,supermarket,,,,https://garciapueblamercado.com/about-us/,,,,,,,,,,,,SanGIS Addresses Public Domain (http://www.sangis.org/),,,,,US,,,,,,,,,,,,,,,,,,,,,,,,,,,,,,,,,,,,,,,,,,,,,,,,,,,,,,,,,,,,,,,,,,,,,,,,,,,,,,,,,,,,,,,,,,,,,,,,,,,,,,,,,,,,,,,,,,,,,,,,,,,,,,,,,groceries,-116.932525,32.7977353
node,596723673,La Mesa,4200,91941,CA,Spring Street,,7-Eleven,Q259340,7-Eleven,,,,,,,,,+1 619-465-4194,35752,convenience,,,,https://www.7-eleven.com/locations/ca/la-mesa/4200-spring-st-35752,,,,,,,,,yes,yes,yes,SanGIS Addresses Public Domain (http://www.sangis.org/),,,,,,,,yes,,,,,,,,,,,,,,,,,,,,,,,,,,,,,,,,,,,,,,,,,,,,,,,,,,,,,,,,,,,,,,,,,,,,,,,,,,,,,,,,,,,,,,,,,,,,,,,,,,,,,,,,,,,,,,,,,,,,,,,,,,,,,,groceries,-117.0141933,32.7551183
node,596741196,San Diego,3355,92116,,Adams Avenue,,,,Corner Liquor,,,,,,,,,+1-619-281-3089,,supermarket,,,,,,,,,,,,,,,,SanGIS Addresses Public Domain (http://www.sangis.org/),,,,,US,,,,,,,,,,,,,,,,,,,,,,,,,,,,,,,,,,,,,,,,,,,,,,,,,,,,,,,,,,,,,,,,,,,,,,,,,,,,,,,,,,,,,,,,,,,,,,,,,,,,,,,,,,,,,,,,,,,,,,,,,,,,,,,,,groceries,-117.1215448,32.7632306
node,596750552,El Cajon,1092,92019,CA,East Washington Avenue,,Speedway,Q7575683,Speedway,,,,,,,,,,3786,convenience,,,,https://www.speedway.com/locations/CA/El-Cajon/1092-E-WASHINGTON-AVE,,,,,,,,,,,,SanGIS Addresses Public Domain (http://www.sangis.org/),,,,,US,,,,,,,,,,,,,,,,,,,,,,,,,,,,,,,,,,,,,,,,,,,,,,,,,,,,,,,,,,,,,,,,,,,,,,,,,,,,,,,,,,,,,,,,,,,,,,,,,,,,,,,,,,,,,,,,,,,,,,,,,,,,,,,,,groceries,-116.945034,32.7880119
node,596804423,San Diego,3070,92103,,Reynard Way,,,,Cloverleaf Market,,,,,,,,,,,convenience,,,,,,,,,,,,,,,,SanGIS Addresses Public Domain (http://www.sangis.org/);SanGIS Business Sites Public Domain (http://www.sangis.org/),,,,,US,,,,,,,,,,,,,,,,,,,,,,,,,,,,,,,,,,,,,,,,,,,,,,,,,,,,,,,,,,,,,,,,,,,,,,,,,,,,,,,,,,,,,,,,,,,,,,,,,,,,,,,,,,,,,,,,,,,,,,,,,,,,,,,,,groceries,-117.1702896,32.7373782
node,596834496,San Diego,6404,92120,,Mission Gorge Road,,USA Gasoline,Q17126373,USA Gasoline,,,,,,,,,,,convenience,,,,,,,,,,,,,,,,SanGIS Addresses Public Domain (http://www.sangis.org/);SanGIS Business Sites Public Domain (http://www.sangis.org/),,,,,US,,,,,,,,,,,,,,,fuel,,,,,,,,,,,,,,,,,,,,,,,,,,,,,,,,,,,,,,,,,,,,,,,,,,,,,,,,,,,,,,,,,,,,,,,,,,,,,,,,,,,,,,,,,,,,,,,,,,,,,,,,,,,,,,,,,,groceries,-117.098098,32.790141
node,596839293,San Diego,1599,92154,CA,La Media Road,,ExtraMile,Q64224605,ExtraMile,,,,,,,,,,,convenience,,,,,,,,,,,,,,,,SanGIS Addresses Public Domain (http://www.sangis.org/),,,,,US,,,,,,,,,,,,,,,,,,,,,,,,,,,,,,,,,,,,,,,,,,,,,,,,,,,,,,,,,,,,,,,,,,,,,,,,,,,,,,,,,,,,,,,,,,,,,,,,,,,,,,,,,,,,,,,,,,,,,,,,,,,,,,,,,groceries,-116.9615269,32.5685226
node,596896179,San Diego,3035,92102,,Cedar Street,,,,Food Bowl Market,,,,,,,,,+1 619 239 4709,,supermarket,,,,,,,,,,,,,,,,,,,,,US,,,,,,,,,,,,,,,,,,,,,,,,,,,,,,,,,,,,,,,,,,,,,,,,,,,,,,,,,,,,,,,,,,,,,,,,,,,,,,,,,,,,,,,,,,,,,,,,,,,,,,,,,,,,,,,,,,,,,,,,,,,,,,,,,groceries,-117.1289514,32.7220617
node,596905604,Spring Valley,9612,91977,CA,Dale Avenue,,,,Kenwood Market,,,,,,,,,,,,,,,,,,,,,,,,,,,SanGIS Addresses Public Domain (http://www.sangis.org/),,,,,US,,,,,,,,,,,,,,,marketplace,,,,,,,,,,,,,,,,,,,,,,,,,,,,,,,,,,,,,,,,,,,,,,,,,,,,,,,,,,,,,,,,,,,,,,,,,,,,,,,,,,,,,,,,,,,,,,,,,,,,,,,,,,,,,,,,,,groceries,-116.9902178,32.7458434
node,596920544,Spring Valley,9065,91977,,Campo Road,,,,,,,,,,,,,,,convenience,,,,,,,,,,,,,,,,SanGIS Addresses Public Domain (http://www.sangis.org/),,,,,,,,,,,,,,,,,,,,,,,,,,,,,,,,,,,,,,,,,,,,,,,,,,,,,,,,,,,,,,,,,,,,,,,,,,,,,,,,,,,,,,,,,,,,,,,,,,,,,,,,,,,,,,,,,,,,,,,,,,,,,,,,,,,,,,groceries,-117.0019152,32.7511547
node,596943098,San Diego,11955,92128,CA,Carmel Mountain Road,San Diego - Carmel Mountain Ranch,Trader Joe's,Q688825,Trader Joe's,Mo-Su 08:00-21:00,,,,,,,,+1 858-673-0526,23,supermarket,,,,https://locations.traderjoes.com/CA/San-Diego/23/,,,,,,,,,,,,SanGIS Addresses Public Domain (http://www.sangis.org/),,,,,,,,,,,,,,,,,,,,,,,,,,,,,,,,,,,,,,,,,,,,,,,,,,,,,,,,,,,,,,,,,,,,,,,,,,,,,,,,,,,,,,,,,,,,,,,,,,,,,,,,,,,,,,,,,,,,,,,,,,,,,,,,,,,,,,groceries,-117.074986,32.982014
node,596971099,Imperial Beach,874,91932,CA,Seacoast Drive,,,,Babycakes,,,,,,,,,,,bakery,,,,https://www.babycakessandiego.com/imperial-beach/,,,,,,,,,,,,SanGIS Addresses Public Domain (http://www.sangis.org/),,,,,US,,,,,,,,,,,,,,,,,,,,,,,,,,,,,,,,,,,,,,,,,,,,,,,,,,,,,,,,,,,,,,,,,,,,,,,,,,,,,,,,,,,,,,,,,,,,,,,,,,,,,,,,,,,,,,,,,,,,,,,,,,,,,,,,,groceries,-117.1319183,32.5804627
node,596987936,San Diego,7611,92111,,Linda Vista Road,,,,Mesa Mart,,,,,,,,,,,convenience,,,,,,,,,,,,,,,,,,,,,US,,,,,,,,,,,,,,,,,,,,,,,,,,,,,,,,,,,,,,,,,,,,,,,,,,,,,,,,,,,,,,,,,,,,,,,,,,,,,,,,,,,,,,,,,,,,,,,,,,,,,,,,,,,,,,,,,,,,,,,,,,,,,,,,,groceries,-117.15748,32.8012872
node,597002895,San Diego,1950,92113,,Main Street,,,,Northgate Market,,,,,,,,,,,supermarket,,,,,,,,,,,,,,,,SanGIS Addresses Public Domain (http://www.sangis.org/),,,,,US,,,,,,,,,,,,,,,,,,,,,,,,,,,,,,,,,,,,,,,,,,,,,,,,,,,,,,,,,,,,,,,,,,,,,,,,,,,,,,,,,,,,,,,,,,,,,,,,,,,,,,,,,,,,,,,,,,,,,,,,,,,,,,,,,groceries,-117.1457621,32.6985822
node,597030057,El Cajon,109,92019,CA,Jamacha Road,,,,El Cajon Bistro & Bakery,,,,,,,,,,,bakery,,,,,,,,,,,,,,,,SanGIS Addresses Public Domain (http://www.sangis.org/),,,,,US,,,,,,,,,,,,,,,,,,,,,,,,,,,,,,,,,,,,,,,,,,,,,,,,,,,,,,,,,,,,,,,,,,,,,,,,,,,,,,,,,,,,,,,,,,,,,,,,,,,,,,,,,,,,,,,,,,,,,,,,,,,,,,,,,groceries,-116.9348385,32.7958138
node,597040449,San Diego,7330,92111,CA,Clairemont Mesa Boulevard,,99 Ranch Market,Q4646307,99 Ranch Market,Mo-Su 08:00-22:00,yes,yes,,yes,yes,,yes,+1 858-974-8899,16,supermarket,,,,,,,,,,,,,,,,SanGIS Addresses Public Domain (http://www.sangis.org/),asian,,,,US,,,,,,,,,,,,,,,,,,,,,,There is a separate address marker right now,yes,99 Ranch Market,大华超级市场,大華超級市場,,,,,,,,,,,,,,,,,,,,,,,,,,,,,,,,,,,,,,,,,,,,,,,,,,,,,,,,,,,,,,,,,,,,,,,,,,,,,,,,,,,,,,,,,,,,,,,,,,,,,,,groceries,-117.1607905,32.8335766
node,597045670,Santee,9361,92071,CA,Mission Gorge Road,Santee,Sprouts Farmers Market,Q7581369,Sprouts Farmers Market,Mo-Su 07:00-22:00,,,,,,,,+1 619-562-0145,,supermarket,,,,https://www.sprouts.com/store/ca/santee/mission-gorge-rd/,,,,,,,Sprouts,,,,,SanGIS Addresses Public Domain (http://www.sangis.org/),,,,,,,,,,,,,,,,,,,,,,,,,,,,,,,,,,,,,,,,,,,,,,,,,,,,,,,,,,,,,,,,,,,,,,,,,,,,,,,,,,,,,,,,,,,,,,,,,,,,,,,,,,,,,,,,,,,,,,,,,,,,,,,,,,,,,,groceries,-116.9934841,32.8374079
node,597068631,National City,3200,91950,CA,D Avenue,,,,National City Swap Meet,"Sa,Su 07:00-15:00",,,,,,,,,,,,,,http://www.nationalcityswapmeet.net,,,,,,,,,,,,SanGIS Addresses Public Domain (http://www.sangis.org/),,,,,US,,,,,,,,,,,,,,,marketplace,,,,,,,,,,,,,,,,,,,,,,,,,,,,,,,,,,,,,,,,,,,,,,,,,,,,,,,,,,,,,,,,,,,,,,,,,,,,,,,,,,,,,,,,,,,,,,,,,,,,,,,,,,,,,,,,,,groceries,-117.0943881,32.6561717
node,619045738,Encinitas,1327,92024,CA,Encinitas Boulevard,Encinitas,Sprouts Farmers Market,Q7581369,Sprouts Farmers Market,Mo-Su 07:00-22:00,,,,,,,,+1 760-633-4747,,supermarket,,,,https://www.sprouts.com/store/ca/encinitas/encinitas-blvd/,,,,,,,Sprouts,,,,,,,,,,,,,,,,,,,,,,,,,,,,,,,,,,,,,,,,,,,,,,,,,,,,,,,,,,,,,,,,,,,,,,,,,,,,,,,,,,,,,,,,,,,,,,,,,,,,,,,,,,,,,,,,,,,,,,,,,,,,,,,,,,,,,,,,,,,groceries,-117.260776,33.0447942
node,654739924,,,,,,,,,Sunshine Market,,,,,,,,,,,convenience,,,,,,,,,,,,,,,,,,,,,,,,,,,,,,,,,,,,,,,,,,,,,,,,,,,,,,,,,,,,,,,,,,,,,,,,,,,,,,,,,,,,,,,,,,,,,,,,,,,,,,,,,,,,,,,,,,,,,,,,,,,,,,,,,,,,,,,,,,,,,,,,,,,,,,groceries,-117.1951184,32.833846
node,726925190,La Mesa,5495,91942,CA,Grossmont Center Drive,La Mesa,Trader Joe's,Q688825,Trader Joe's,Mo-Su 08:00-21:00,,,,,,,,+1 619-466-0105,24,supermarket,,,,https://locations.traderjoes.com/ca/la-mesa/24,,,,,,,,,,,,,,,,,,,,,,,,,,,,,,,,,,,,,,,,,,,,,,,,,,,,,,,,,,,,,,,,,,,,,,,,,,,,,,,,,,,,,,,,,,,,,,,,,,,,,,,,,,,,,,,,,,,,,,,,,,,,,,,,,,,,,,,,,,,,,,,,,,groceries,-117.0057306,32.7791359
node,735982940,,,,,,,,,Olive Baking Company,Mo-Su 07:30-13:00,,,,,,,,,,bakery,,,,,,,,,,,,,,,,,,,,,,,,,,,,,,,,,,,,,,,,,,,,,,,,,,,,,,,,,,,,,,,,,,,,,,,,,,,,,,,,,,,,,,,,,,,,,,,,,,,,,,,,,,,,,,,,,,,,,,,,,,,,,,,,,,,,,,,,,,,,,,,,,,,,,,groceries,-117.2529272,32.7824251
node,761881884,,,,,,,,,Windmill Farms,,,,,,yes,,yes,,,supermarket,,,,,,2023-10-07,,,,,,,,,,local knowledge,,,,,,yes,,,yes,,,,,,,,,,,,,,,,,,,,,,,,,,,,,,,,,,,,,,,,,,,,,,,,,,,,,,,,,,,,,,,,,,,,,,,,,,,,,,,,,,,,,,,,,,,,,,,,,,,,,,,,,,,,,,,,,,,,,,,,,,,,,groceries,-117.0596437,32.7839251
node,761882353,,6301,,,Del Cerro Boulevard,,ExtraMile,Q64224605,ExtraMile,,,,,,yes,,yes,,,convenience,,,,,,2023-10-07,,,,,,,,,,local knowledge,,,,,,yes,,,yes,,,,,,,,,,,,,,,,,,,,,,,yes,yes,no,,,,,,,,,,,,,,,,,,,,,,,,,,,,,,,,,,,,,,,,,,,,,,,,,,,,,,,,,,,,,,,,,,,,,,,,,,,,,,,,,,,,,,,,,,,,,,,,,,,,groceries,-117.061462,32.7828653
node,766271740,San Diego,3408,92104,,Ray Street,,,,Kwik Stops,,,,,,,,,,,convenience,,,,,,,,,,,,,,,,SanGIS Addresses Public Domain (http://www.sangis.org/),,,,,US,,,,,,,,,,,,,,,,,,,,,,,,,,,,,,,,,,,,,,,,,,,,,,,,,,,,,,,,,,,,,,,,,,,,,,,,,,,,,,,,,,,,,,,,,,,,,,,,,,,,,,,,,,,,,,,,,,,,,,,,,,,,,,,,,groceries,-117.1293596,32.7413396
node,766274739,San Diego,3047,92104,,30th Street,,,,Ray's Liquor,,,,,,,,,,,convenience,,,,,,,,,,,,,,,,,,,,,,,,,,,,,,,,,,,,,,,,,,,,,,,,,,,,,,,,,,,,,,,,,,,,,,,,,,,,,,,,,,,,,,,,,,,,,,,,,,,,,,,,,,,,,,,,,,,,,,,,,,,,,,,,,,,,,,,,,,,,,,,,,,,,,,groceries,-117.1289806,32.737264
node,922120602,,,,,,,,,General Store Co-Op,,,,,,,,,,,convenience,,,,,,,,,,,,,,,,,,,,,,yes,,,,,,,,,,,,,,,,,,,,,,,,,,,,,1,,,,,,,,,,,,,,,,,,,,,,,,,,,,,,,,,,,,,,,,,,,,,,,,,,,,,,,,,,,,,,,,,,,,,,,,,,,,,,,,,,,,,,,,,,,,,,,,,,,groceries,-117.239955,32.8772281
node,955368323,San Diego,4504,92116,,Park Boulevard,,,,,,,,,,,,,,,convenience,,,,,,,,,,,,,,,,SanGIS Addresses Public Domain (http://www.sangis.org/),,,,,US,,,,,,,,,,,,,,,,,,,,,,,,,,,,,,,,,,,,,,,,,,,,,,,,,,,,,,,,,,,,,,,,,,,,,,,,,,,,,,,,,,,,,,,,,,,,,,,,,,,,,,,,,,,,,,,,,,,,,,,,,,,,,,,,,groceries,-117.1464348,32.7592781
node,955373182,,,,,,,,,Bud's Liquor,,,,,,,,,,,convenience,,,,,,,,,,,,,,,,,,,,,,yes,,,,,,,,,,,,,,,,,,,,,,,,,,,,,,,,,,,,,,,,,,,,,,,,,,,,,,,,,,,,,,,,,,,,,,,,,,,,,,,,,,,,,,,,,,,,,,,,,,,,,,,,,,,,,,,,,,,,,,,,,,,,,,,,groceries,-117.1460968,32.7607476
node,955373366,,,,,,,,,Summer's Liquor,,,,,,,,,,,convenience,,,,,,,,,,,,,,,,,,,,,,yes,,,,,,,,,,,,,,,,,,,,,,,,,,,,,,,,,,,,,,,,,,,,,,,,,,,,,,,,,,,,,,,,,,,,,,,,,,,,,,,,,,,,,,,,,,,,,,,,,,,,,,,,,,,,,,,,,,,,,,,,,,,,,,,,groceries,-117.1464308,32.7611446
node,964338334,,,,,,,,,Chris' Market,,,,,,,,,,,convenience,,,,,,,,,,,,,,,,,,,,,,,,,,,,,,,,,,,,,,,,,,,,,,,,,,,,,,,,,,,,,,,,,,,,,,,,,,,,,,,,,,,,,,,,,,,,,,,,,,,,,,,,,,,,,,,,,,,,,,,,,,,,,,,,,,,,,,,,,,,,,,,,,,,,,,groceries,-117.1207367,32.7418131
node,964338340,,,,,,,,,,,,,,,,,,,,convenience,,,,,,,,,,,,,,,,,,,,,,,,,,,,,,,,,,,,,,,,,,,,,,,,,,,,,,,,,,,,,,,,,,,,,,,,,,,,,,,,,,,,,,,,,,,,,,,,,,,,,,,,,,,,,,,,,,,,,,,,,,,,,,,,,,,,,,,,,,,,,,,,,,,,,,groceries,-117.1242905,32.7418356
node,964344366,,,,,,,,,Parkside Foods,,,,,,,,,,,supermarket,,,,,,,,,,,,,,,,,,,,,,,,,,,,,,,,,,,,,,,,,,,,,,,,,,,,,,,,,,,,,,,,,,,,,,,,,,,,,,,,,,,,,,,,,,,,,,,,,,,,,,,,,,,,,,,,,,,,,,,,,,,,,,,,,,,,,,,,,,,,,,,,,,,,,,groceries,-117.1246588,32.7390674
node,966307864,,,,,,,,,Pacific Liquor,,,,,,,,,,,convenience,,,,,,,,,,,,,,,,,,,,,,,,,,,,,,,,,,,,,,,,,,,,,,,,,,,,,,,,,,,,,,,,,,,,,,,,,,,,,,,,,,,,,,,,,,,,,,,,,,,,,,,,,,,,,,,,,,,,,,,,,,,,,,,,,,,,,,,,,,,,,,,,,,,,,,groceries,-117.1307161,32.7550915
node,1036688405,,,,,,,,,Tropical Star,,,,,,,,,,,grocery,,,,,,,,,,,,,,,,,puerto_rican,,,,,,,,,,,,,,,,,,,restaurant,,,,,,,,,,,,,,,,,,,,,,,,,,,,,,,,,,,,,,,,,,,,,,,,,,,,,,,,,,,,,,,,,,,,,,,,,,,,,,,,,,,,,,,,,,,,,,,,,,,,,,,,,,,,,,,,,,groceries,-117.1747445,32.8196812
node,1168894173,,,,,,,,,Calimax,,,,,,,,,,,supermarket,,,,,,,,,,,,,,,,,,,,,,,,,,,,,,,,,,,,,,,,,,,,,,,,,,,,,,,,,,,,,,,,,,,,,,,,,,,,,,,,,,,,,,,,,,,,,,,,,,,,,,,,,,,,,,,,,,,,,,,,,,,,,,,,,,,,,,,,,,,,,,,,,,,,,,groceries,-117.0487172,32.5345667
node,1257266321,,,,,,,,,Bombay Bazaar,,,,,,,,,,,convenience,,,,,,,,,,,,,,,,,,,,,,,,,,,,,,,,,,,,,,,,,,,,,,,,,,,,,,,,,,,,,,,,,,,,,,,,,,,,,,,,,,,,,,,,,,,,,,,,,,,,,,,,,,,,,,,,,,,,,,,,,,,,,,,,,,,,,,,,,,,,,,,,,,,,,,groceries,-117.1239743,32.8954164
node,1269940019,,2501,,,San Diego Avenue,,,,Five and Dime General Store,,,,,,,,,,,convenience,,,,https://www.fiveanddimegs.com/,,2024-05-18,,,,,,,,,,,,,,,,,,,,,,,,,,,,,,,,,,,,,,,,,,,,,,,,,,,,,,,,,,,,,,,,,,,,,,,,,,,,,,,,,,,,,,,,,,,,,,,,,,,,,,,,,,,,,,,,,,,,,,,,,,,,,,,,,,,,,,,,,,,,,,,,groceries,-117.1950971,32.7527318
node,1351020578,,,,,,,,,,,,,,,,,,,,convenience,,,,,,,,,,,,,,,,,,,,,,,,,,,,,,,,,,,,,,,,,,,,,,,,,,,,,,,,,,,,,,,,,,,,,,,,,,,,,,,,,,,,,,,,,,,,,,,,,,,,,,,,,,,,,,,,,,,,,,,,,,,,,,,,,,,,,,,,,,,,,,,,,,,,,,groceries,-117.2051439,32.8549645
node,1404163933,,,,,,,,,Food Mart,,,,,,,,,,,convenience,,,,,,,,,,,,,,,,local knowledge,,,,,,,,,,,,,,,,,,,,,,,,,,,,,,,,,,,,,,,,,,,,,,,,,,,,,,,,,,,,,,,,,,,,,,,,,,,,,,,,,,,,,,,,,,,,,,,,,,,,,,,,,,,,,,,,,,,,,,,,,,,,,,,,,,,,,,groceries,-117.0702549,33.0701491
node,1445215680,,,,,,,,,,,,,,,,,,,,convenience,,,,,,,,,,,,,,,,Bing,,,,,,,,,,,,,,,,,,,,,,,,,,,,,,,,,,,,,,,,,,,,,,,,,,,,,,,,,,,,,,,,,,,,,,,,,,,,,,,,,,,,,,,,,,,,,,,,,,,,,,,,,,,,,,,,,,,,,,,,,,,,,,,,,,,,,,groceries,-117.2042009,32.8550399
node,1446003019,Escondido,510,92025,CA,West 13th Avenue,Escondido,Sprouts Farmers Market,Q7581369,Sprouts Farmers Market,Mo-Su 07:00-22:00,,,,,,,,+1 760-743-1528,,supermarket,,,,https://www.sprouts.com/store/ca/escondido/w-13th-ave/,,,,,,,Sprouts,,,,,SanGIS Addresses Public Domain (http://www.sangis.org/),,,,,,yes,,,,,,,,,,,,,,,,,,,,,,,,,,,,,,Henry's Farmers Market,,,,,,,,,,,,,,,,,,,,,,,,,,,,,,,,,,,,,,,,,,,,,,,,,,,,,,,,,,,,,,,,,,,,,,,,,,,,,,,,,,,,,,,,,,,,,,,,,,groceries,-117.080649,33.1080924
node,1446003020,Escondido,515,92025,,West 13th Avenue,,Marie Callender's,Q6762784,Marie Callender's,,,,,,,,,,,bakery,,,,https://www.mcpies.com/,,,,,,,,,,,,SanGIS Addresses Public Domain (http://www.sangis.org/),american,,,,US,,,,,,,,,,,,,,,restaurant,,,,,,,,,,,,,,,,,Marie Callender's Restaurant & Bakery,,,,,,,,,,,,,,,,,,,,,,,,,,,,,,,,,,,,,,,,,,,,,,,,,,,,,,,,,,,,,,,,,,,,,,,,,,,,,,,,,,,,,,,,,,,,,,,,,groceries,-117.079517,33.1076714
node,1451194434,San Diego,9440,92126,CA,Mira Mesa Boulevard,San Diego,H Mart,Q5636306,H Mart,Mo-Su 08:00-22:00,,,,,,,,+1-858-577-0060,,supermarket,,,,https://www.hmart.com/store/san-diego-ca-92126/77e8bb40-b162-4c04-af5d-4004434f3a89,,,,,,,,,,,,,asian,,,,,,,,,,,,,,,,,,,,,,,,,,,,H Mart,韩亚龙,韓亞龍,,,,,,,H 마트,한아름,,,,,,,,,,,,,,,,,,,,,,,,,,,,,,,,,,,,,,,,,,,,,,,,,,,,,,,,,,,,,,,,,,,,,,,,,,,,,,,,,,,,,,,,,,,,,,,groceries,-117.1223639,32.9187594
node,1499580747,,2329,,,Madison Avenue,,,,Quality Market Liquor,,,,,,,,,,,convenience,,,,,,,,,,,,,,,,,,,,,,,,,,,,,,,,,,,,,,,,,,,,,,,,,,,,,,,,,,,,,,,,,,,,,,,,,,,,,,,,,,,,,,,,,,,,,,,,,,,,,,,,,,,,,,,,,,,,,,,,,,,,,,,,,,,,,,,,,,,,,,,,,,,,,,groceries,-117.1393354,32.7608408
node,1576266142,,,,,,,,,Circle K,,,,,,,,,,,convenience,,,,,,,,,,,,,,,,,,,,,,,,,,,,,,,,,,,,,,,,,,,,,,,,,,,,,,,,,,,,,,,,,,,,,,,,,,,,,,,,,,,,,,,,,,,,,,,,,,,,,,,,,,,,,,,,,,,,,,,,,,,,,,,,,,,,,,,,,,,,,,,,,,,,,,groceries,-117.0241297,32.9777185
node,1586571056,,,,,,,Smart & Final,Q7543916,Smart & Final,,,,,,,,,,,supermarket,,,,,,,,,,,,,,,,,,,,,,,,,,,,,,,,,,,,,,,,,,,,,,,,,,,,,,,,,,,,,,,,,,,,,,,,,,,,,,,,,,,,,,,,,,,,,,,,,,,,,,,,,,,,,,,,,,,,,,,,,,,,,,,,,,,,,,,,,,,,,,,,,,,,,,groceries,-117.063645,32.9507169
node,1586571118,,13012,,,,,Circle K,Q3268010,Circle K,,,,,,,,,,,convenience,,,,,,,,,,,,,,,,,,,,,,,,,,,,,,,,,,,,,,,,,,,,,,,,,,,,,,,,,,,,,,,,,,,,,,,,,,,,,,,,,,,,,,,,,,,,,,,,,,,,,,,,,,,,,,,,,,,,,,,,,,,,,,,,,,,,,,,,,,,,,,,,,,,,,,groceries,-117.063002,32.9522081
node,1616177857,,,,,,,,,Aztec Market & Convenience Store,,,,,,,,,,,convenience,,,,,,,,,,,,,,,,,,,,,,,,,,,,,,,,,,,,,,,,,,,,,,,,,,,,,,,,,,,,,,,,,,,,,,,,,,,,,,,,,,,,,,,,,,,,,,,,,,,,,,,,,,,,,,,,,,,,,,,,,,,,,,,,,,,,,,,,,,,,,,,,,,,,,,groceries,-117.0739338,32.7761963
node,1720098591,,,,,,,,,La Jolla Baking,,,,,,,,,,,bakery,,,,,,,,,,,,,,,,,,,,,,,,,,,,,,,,,,,,,,,,,,,,,,,,,,,,,,,,,,,,,,,,,,,,,,,,,,,,,,,,,,,,,,,,,,,,,,,,,,,,,,,,,,,,,,,,,,,,,,,,,,,,,,,,,,,,,,,,,,,,,,,,,,,,,,groceries,-117.1536601,32.8939184
node,1727124136,,,,,,,,,Golden Doughnut,,,,,,,,,,,bakery,,,,,,,,,,,,,,,,Bing,,,,,,,,,,,,,,,,,,,,,,,,,,,,,,,,,,,,,,,,yes,,,,,,,,,,,,,,,,,,,,,,,,,,,,,,,,,,,,,,,,,,,,,,,,,,,,,,,,,,,,,,,,,,,,,,,,,,,,,,,,,,,,,,,,,,,,,,groceries,-117.2024608,32.8536393
node,1743950592,San Diego,,,,,,Circle K,Q3268010,Circle K,,,,,,,,,,,convenience,,,,,,,,,,,,,,,,Bing,,,,,US,,,,,,,,,,,,,,,,,,,,,,,,,,,,,,,,,,,,,,,,,,,,,,,,,,,,,,,,,,,,,,,,,,,,,,,,,,,,,,,,,,,,,,,,,,,,,,,,,,,,,,,,,,,,,,,,,,,,,,,,,,,,,,,,,groceries,-117.0748087,33.0232626
node,1743954601,,,,,,,Shell,Q110716465,Shell,,,,,,,,,,,convenience,,,,,,,,,,,,,,,,Bing,,,,,,,,,,,,,,,,,,,,,,,,,,,,,,,,,,,,,,,,,,,,,,,,,,,,,,,,,,,,,,,,,,,,,,,,,,,,,,,,,,,,,,,,,,,,,,,,,,,,,,,,,,,,,,,,,,,,,,,,,,,,,,,,,,,,,,groceries,-117.060489,33.0183236
node,1767757872,,,,,,,,,Busy Bee's Bagel Bakery,,,,,,,,,,,bakery,,,,,,,,,,,,,,,,,,,,,,,,,,,,,,,,,,,,,,,,,,,,,,,,,,,,,,,,,,,,,,,,,,,,,,,,,,,,,,,,,,,,,,,,,,,,,,,,,,,,,,,,,,,,,,,,,,,,,,,,,,,,,,,,,,,,,,,,,,,,,,,,,,,,,,groceries,-117.2761454,32.8316029
node,1809707850,Escondido,1855,92025,CA,South Centre City Parkway,,,,Major Market,,,,,,,,,,,supermarket,,,,https://majormarketgrocery.com/,,,,,,,,,,,,,,,,,,,,,,,,,,,,,,,,,,,,,,,,,,,,,,,,,,,,,,,,,,,,,,,,,,,,,,,,,,,,,,,,,,,,,,,,,,,,,,,,,,,,,,,,,,,,,,,,,,,,,,,,,,,,,,,,,,,,,,,,,,,,,,,,,,groceries,-117.0752148,33.1009336
node,1833777977,,,,,,,Chevron,Q319642,Chevron,,,,,,,,,,,convenience,,,,,,,,,,,,,,,,Bing,,,,,,,,,,,,,,,,,,,,,,,,,,,,,,,,,,,,,,,,,,,,,,,,,,,,,,,,,,,,,,,,,,,,,,,,,,,,,,,,,,,,,,,,,,,,,,,,,,,,,,,,,,,,,,,,,,,,,,,,,,,,,,,,,,,,,,groceries,-117.066441,33.0679992
node,1834875846,,,,,,,,,Shell Food Mart,,,,,,,,,,,convenience,,,,,,,,,,,,,,,,Bing,,,,,,,,,,,,,,,,,,,,,,,,,,,,,,,,,,,,,,,,,,,,,,,,,,,,,,,,,,,,,,,,,,,,,,,,,,,,,,,,,,,,,,,,,,,,,,,,,,,,,,,,,,,,,,,,,,,,,,,,,,,,,,,,,,,,,,groceries,-117.1620333,32.7503154
node,1834884861,,,,,,,,,Hills Wine and Spirits,,,,,,,,,,,convenience,,,,,,,,,,,,,,,,Bing,,,,,,,,,,,,,,,,,,,,,,,,,,,,,,,,,,,,,,,,,,,,,,,,,,,,,,,,,,,,,,,,,,,,,,,,,,,,,,,,,,,,,,,,,,,,,,,,,,,,,,,,,,,,,,,,,,,,,,,,,,,,,,,,,,,,,,groceries,-117.169179,32.7496545
node,1884458497,,5921,,,Balboa Avenue,,,,Balboa Bakery,,,,,,,,,,,bakery,,,,,,,,,,,,,,,,,,,,,,,,,,,,,,,,,,,,,,,,,,,,,,,,,,,,,,,,,,,,,,,,,,,,,,,,,,,,,,,,,,,,,,,,,,,,,,,,,,,,,,,,,,,,,,,,,,,,,,,,,,,,,,,,,,,,,,,,,,,,,,,,,,,,,,groceries,-117.1775275,32.8190004
node,1884458542,,5905,92111,,Balboa Avenue,,,,Balboa International Market,Mo-Su 08:00-21:00,,,,,,,,+1-858-277-3600,,supermarket,,,,https://www.balboamarket.com/,,,,,,,,,,,,,,,balboa.market@yahoo.com,,,,,,,,,,,,,,,,,,,,,,,,,,,,,,,,,,,,,,,,,,,,,,,,,,,,,,,,,,,,,,,,,,,,,,,,,,,,,,,,,,,,,,,,,,,,,,,,,,,,,,,,,,,,,,,,,,,,,,,,,,,,,,,,,,,groceries,-117.1780049,32.8189215
node,1912313370,,,,,,,,,Market at Seventh College,,,,,,,,,,,supermarket,,,,,,,,,,,,,,,,,,,,,,,,,,,,,,,,,,,,,,,,,,,,,,,,,,,,,,,,,,,,,,,,,,,,,,,,,,,,,,,,,,,,,,,,,,,,,,,,,,,,,,,,,,,,,,,,,,,,,,,,,,,,,,,,,,,,,,,,,,,,,,,,,,,,,,groceries,-117.242098,32.8875979
node,1952127066,San Diego,1254,92101,,3rd Avenue,,,,Al Teatro Panini Grill,,,,,,,,,+1 619 230 1485,,bakery,,,,http://alteatropaninigrill.com,,,,,,,,,,,,,italian;sandwich,,alteatropg@gmail.com,,US,,,,,,,,,,,,,,,restaurant,,,,,,,,,,,,,,,,,,,,,,,,,,,,,,,,,,,,,,,,,,,,,,,,,,,,,,,,,,,,,,,,,,,,,,,,,,,,,,,,,,,,,,,,,,,,,,,,,,,,,,,,,,,,,,,,,,groceries,-117.1621693,32.718556
node,1974494879,San Diego,1090,92103,CA,University Avenue,San Diego - Hillcrest,Trader Joe's,Q688825,Trader Joe's,09:00-21:00,,,,,,,,+1 619-296-3122,26,supermarket,,,,https://locations.traderjoes.com/ca/san-diego/26/,,,,,,,,,,,,,,,,,,,,,,,,,,,,,,,,,,,,,,,,,,,,,,,,,,,,,,,,,,,,,,,,,,,,,,,,,,,,,,,,,,,,,,,,,,,,,,,,,,,,,,,,,,,,,,,,,,,,,,,,,,,,,,,,,,,,,,,,,,,,,,,,,,groceries,-117.1539752,32.74976
node,1974497233,San Diego,711,92103,CA,University Avenue,Hillcrest,Whole Foods Market,Q1809448,Whole Foods Market,Mo-Su 07:00-22:00,,,,,,,,+1 619-294-2800,sandiego,supermarket,,,,https://www.wholefoodsmarket.com/stores/sandiego,,2024-10-03,,,,,,,,,,,,,,,,,,,,,,,,,,,,,,,,,,,,,,,Whole Foods Market,,,,,,,,,,,,2024-10-03,On the map this looks like a parking lot -- the parking that you see is on top of the building and the actual market is beneath it.,wlan,Whole Foods Market,,,,,,,,,,,,,,,,,,,,,,,,,,,,,,,,,,,,,,,,,,,,,,,,,,,,,,,,,,,,,,,,,,,,,,,,,,,,,,,,,,,,,,,,,,groceries,-117.1580989,32.7481447
node,1982057978,Tijuana,,,,Calle Canal,,Oxxo,Q1342538,Oxxo,,,,,,,,,,,convenience,,,,https://www.oxxo.com/tiendas?cr=50EES,,,,,,,,,,,,,,,,,,,,,,,,,,,,,,,,,,,,,,,,,,,,,,,,,,,,,,,,,,,,,,,,,,,,,,,,,,,,,,,,,,,,,,,,,,,,,,,,,,,,,,,,,,,,,,,,,,,,,,,,,,,,,,,,,,,,,,,,,,,,,,,,,,groceries,-117.097563,32.5334108
node,1999508500,Escondido,1885,92025,CA,South Centre City Parkway,Escondido,Trader Joe's,Q688825,Trader Joe's,Mo-Su 08:00-21:00,,,,,,,,+1 760-233-4020,105,supermarket,,,,https://locations.traderjoes.com/ca/escondido/105/,,,,,,,,,,,,,,,,,,,,,,,,,,,,,,,,,,,,,,,,,,,,,,,,,,,,,,,,,,,,,,,,,,,,,,,,,,,,,,,,,,,,,,,,,,,,,,,,,,,,,,,,,,,,,,,,,,,,,,,,,,,,,,,,,,,,,,,,,,,,,,,,,,groceries,-117.0747179,33.1000685
node,2049031818,San Diego,555,92101-8470,CA,West C Street,,7-Eleven,Q259340,7-Eleven,,,,,,,,,+1 619-238-0251,33569,convenience,,,,https://www.7-eleven.com/locations/ca/san-diego/555-west-c-st-ste-100-33569,100,,,,,,,,yes,yes,yes,,,,,,,,,,,,,,,,,,,,,,,,,,,,,,,,,,,,,,,,,,,,,,,,,,,,,,,,,,,,,,,,,,,,,,,,,,,,,,,,,,,,,,,,,,,,,,,,,,,,,,,,,,,,,,,,,,,,,,,,,,,,,,,,,,,,,,,groceries,-117.1681108,32.7165752
node,2108763830,,,,,,,,,Mega Dollar,,,,,,,,,,,convenience,,,,,,,,,,,,,,,,,,,,,,,,,,,,,,,,,,,,,,,,,,,,,,,,,,,,,,,,,,,,,,,,,,,,,,,,,,,,,,,,,,,,,,,,,,,,,,,,,,,,,,,,,,,,,,,,,,,,,,,,,,,,,,,,,,,,,,,,,,,,,,,,,,,,,,groceries,-117.1163808,32.7631732
node,2247292250,San Diego,13510,92128,CA,Sabre Springs Parkway,,7-Eleven,Q259340,7-Eleven,,,,,,,,,+1 858-513-8301,36112,convenience,,,,https://www.7-eleven.com/locations/ca/san-diego/13510-sabre-springs-pkwy-36112,101,,,,,,,,yes,yes,yes,survey,,,,,,,,yes,,,,,verify appropriate data for shop under construction,,,,,,,,,,,,,,under construction,,,,,,,,,,,,,,,,,,future,,,,,,,,,,,,,,,,,,,,,,,,,,,,,,,,,,,,,,,,,,,,,,,,,,,,,,,,,,,,,,,,,,,,,,,,,,,,,,,,,,,,,,,,,groceries,-117.09203,32.9624567
node,2374228244,,,,,,,,,Hanna's Creamery & Cafe,,,,,,,,,,,bakery,,,,,,,,,,,,,,,,,,,,,,,,,,,,,,,,,,,,,,,,,,,,,,,,,,,,,,,,,,,,,,,,,,,,,,,,,,,,,,,,,,,,,,,,,,,,,,,,,,,,,,,,,,,,,,,,,,,,,,,,,,,,,,,,,,,,,,,,,,,,,,,,,,,,,,groceries,-117.2116385,32.8701336
node,2397160517,San Diego,11639,92127,CA,Duenda Road,,,,Edelweiss Bakery,Tu-Th 09:00-15:00; Fr 09:00-16:00; Sa 08:00-16:00,,,,,,,,+1 858-487-4338,,bakery,,,,https://www.ourweddingcake.com,,,,,,,,,,,,,,,,,,,,,,,,,,,,,,,,,,,,,,,,yes,,,,yes,,,,,,,,,,,,,,yes,,,,,,,,,,,,,,,,,,,,,,,,,,,,,,,,,,,,,,,,,,,,,,,,,,,,,,,,,,,,,,,,,,,,,,,,,,,,,,,,,,,,,,,,groceries,-117.0798593,33.0325351
node,2429753714,,,,,,,,,Stehly Farms Market,,,,,,,,,,,supermarket,,,,,,,,,,,,,,,,Bing,,,,,,,,,,,,,,,,only,,,,,,,,,,,,,,,,,,,,,,,,,,,,,,,,,,,,,,,,,,,,,,,,,,,,,,,,,,,,,,,,,,,,,,,,,,,,,,,,,,,,,,,,,,,,,,,,,,,,,,,,,,,,,,,,,,,,,,groceries,-117.2016863,32.7714723
node,2524937426,San Diego,4091,92111-3017,CA,Genesee Avenue,,7-Eleven,Q259340,7-Eleven,,,,,,,,,+1 858-292-1161,15046,convenience,,,,https://www.7-eleven.com/locations/ca/san-diego/4091-genesee-ave-15046,,,,,,,,,yes,yes,yes,Bing,,,,,,,,yes,,,,,,,,,,,,,,,,,,,,,,,,,,,,,,,,,,,,,,,,,,,,,,,,,,,,,,,,,,,,,,,,,,,,,,,,,,,,,,,,,,,,,,,,,,,,,,,,,,,,,,,,,,,,,,,,,,,,,,,,,,,,,,groceries,-117.1802187,32.8172289
node,2620560321,,,,,,,,,La Tiendita,,,,,,,,,,,supermarket,,,,,,,,,,,,,,,,Bing,,,,,,,,,,,,,,,,,,,,,,,,,,,,,,,,,,,,,,,,,,,,,,,,,,,,,,,,,,,,,,,,,,,,,,,,,,,,,,,,,,,,,,,,,,,,,,,,,,,,,,,,,,,,,,,,,,,,,,,,,,,,,,,,,,,,,,groceries,-117.2052704,32.8274466
node,2645046056,Chula Vista,878,91914,CA,Eastlake Parkway,Chula Vista,Trader Joe's,Q688825,Trader Joe's,Mo-Su 08:00-21:00,,,,,,,,+1 619-656-5370,120,supermarket,,,,https://locations.traderjoes.com/ca/chula-vista/120/,,,,,,,,,,,,,,,,,,,,,,,,,,,,,,,,,,,,,,,,,,,,,,,,,,,,,,,,,,,,,,,,,,,,,,,,,,,,,,,,,,,,,,,,,,,,,,,,,,,,,,,,,,,,,,,,,,,,,,,,,,,,,,,,,,,,,,,,,,,,,,,,,,groceries,-116.970681,32.6522644
node,2645046476,Chula Vista,878,91914,CA,Eastlake Parkway,Chula Vista Eastlake (Independently Operated*),Sprouts Farmers Market,Q7581369,Sprouts Farmers Market,Mo-Su 07:00-21:00,,,,,,,,+1 619-421-2099,,supermarket,,,,https://www.sprouts.com/store/ca/chula-vista/chula-vista-eastlake/,,,,,,,Sprouts,,,,,,,,,,,yes,,,,,,,,,,,,,,,,,,,,,,,,,,,,,,,,,,,,,,,,,,,,,,,,,,,,,,,,,,,,,,,,,,,,,,,,,,,,,,,,,,,,,,,,,,,,,,,,,,,,,,,,,,,,,,,,,,,,,,,,,,,,,,,,groceries,-116.970096,32.6507513
node,2658407058,San Diego,3860,92111,CA,Convoy Street,,,,Nijiya Market,09:00-21:00,yes,yes,,yes,yes,,yes,+1 858-268-3821,,supermarket,,,,https://www.nijiya.com,109,,,,,,,,,,,,japanese,,,,,,,,,,,,,,,yes,,,,,,,,,,,,,,,,,,,,,,,,,,,,,,,,,,,,,,,,,,,,,,,,,,,,,,,,,,,,,,,,,,,,,,,,,,,,,,,,,,,,,,,,,,,,,,,,,,,,,,,,,,,,,,,,,,,,,,groceries,-117.1539803,32.8142761
node,2699515567,San Diego,1666,92106,CA,Rosecrans Street,Point Loma,Ralphs,Q3929820,Ralphs,24/7,,,,,,,,+1 619-819-6040,,supermarket,,,,https://www.ralphs.com/stores/grocery/ca/san-diego/point-loma/703/00212,,,,,,,,,,,,,,,,,,,,,,,,,,,,,,,,,,,,,,,,,,,,,,,,,,,,,,,,,,,,,,,,,,,,,,,,,,,,,,,,,,,,,,,,,,,,,,,,,,,,,,,,,,,,,,,,,,,,,,,,,,,,,,,,,,,,,,,,,,,,,,,,,,groceries,-117.226322,32.7285191
node,2810102263,,,,,,,,,,,,,,,,,,,,bakery,,,,,,,,,,,,,,,,,,,,,,,,,,,,,,,,,,,,,,,,,,,,,,,,,,,,,,,,,,,,,,,,,,,,,,,,,,,,,,,,,,,,,,,,,,,,,,,,,,,,,,,,,,,,,,,,,,,,,,,,,,,,,,,,,,,,,,,,,,,,,,,,,,,,,,groceries,-117.1164894,32.5307814
node,2993406188,,,,,,,,,City Heights Market,Sa 9:00-13:00,,,,,,,,+1-760-580-0116,,farm,,,,http://www.sdfarmbureau.org/BuyLocal/Farmers-Markets.php/wb/#cityhts,,,,,,,,,,,,,,,christy@sdfarmbureau.org,,,,,,,,,,,,,,,,,marketplace,,,,,,,,,,,,,,,,,,,,,,,,,,,,,,,,,,,,,,,,,,,,,,,,,,,,,,,,,,,,,,,,,,,,,,,,,,,,,,,,,,,,,,,,,,,,,,,,,,,,,,,,,,,,,,,,,,groceries,-117.1015151,32.7478591
node,3023778053,San Diego,,92110,CA,,Point Loma,Sprouts Farmers Market,Q7581369,Sprouts Farmers Market,Mo-Su 07:00-22:00,,,,,,,,+1 619-523-3640,,supermarket,,,,https://www.sprouts.com/store/ca/san-diego/point-loma/,,,yes,,yes,,Sprouts,,,,,,,,,,,,,,,,,,,,,,,,,,,,,,,,,,,,,,,,,,,,,,,,,,,,,,,,,,,,,,,,,,,,,,,,,,,,,,,,,,,,,,,,,,,,,,,,,,,,,,,,,,,,,,,,,,,,,,,,,,,,,,,,,,,,,,,,,,,groceries,-117.20661,32.7476029
node,3042704036,,,,,,,,,Boudin,,,,,,,,,,,bakery,,,,http://www.boudinbakery.com,,,,,,,,,,,,,bread,,,,,,,,,,,,,,,,,,,,,,,,,,,,,,,,,,,,,,,,,,,,,,no,,,,,,,,,,,,,,,,,,,,,,,,,,,,,,,,,,,,,,,,,,,,,,,,,,,,,,,,,,,,,,,,,,,,,,,,,,,,,,,,,,,,,,,groceries,-117.1814131,32.8192455
node,3046966112,San Diego,9450,92126,,Mira Mesa Boulevard,,,,The Kebab Shop,Mo-Su 10:30-22:00,,,,,,,,+1-858-586-0499,,supermarket,,,,https://www.thekebabshop.com,,,,,,,,,,,,,kebab,,MiraMesa@thekebabshop.com,,,,,,,,,,,,,,,,,restaurant,,,,,,,,,,,,,,,,,,,,,,,,,,,,yes,,,,,,,,,,,,,,,,,,,,,,,,,,,,,,,,,,,,,,,,,,,,,,,,,,,,,,,,,,,,,,,,,,,,,,,,,,,,,,,,,,,,,,groceries,-117.1215733,32.9190676
node,3298795387,,,,,,,,,Aztec Market & Convenience Store,,,,,,,,,,,convenience,,,,,,,,,,,,,,,,,,,,,,,,,,,,,,,,,,,,,,,,,,,,,,,,,,,,,,,,,,,,,,,,,,,,,,,,,,,,,,,,,,,,,,,,,,,,,,,,,,,,,,,,,,,,,,,,,,,,,,,,,,,,,,,,,,,,,,,,,,,,,,,,,,,,,,groceries,-117.0703566,32.7756598
node,3329381630,San Diego,6090,92115,CA,Aztec Walk East,,,,Aztec Market & Convenience Store,,,,,,,,,,,supermarket,,,,,,,,,,,,,,,,,,,,,,,,,,,,,,,,,,,Aztec Shops,,,,,,,,,,,,,,,,,,,,,,,,,,,,,,,,,,,,,,,,,,,,,,,,,,,,,,,,,,,,,,,,,,,,,,,,,,,,,,,,,,,,,,,,,,,,,,,,,,,,,,,,,,,,,,,,,,,groceries,-117.068036,32.7724615
node,3384976129,,,,,,,,,John's Place and Market,,,,,,,,,,,convenience,,,,,,,,,,,,,,,,,,,,,,,,,,,,,,,,,,,,,,,,,,,,,,,,,,,,,,,,,,,,,,,,,,,,,,,,,,,,,,,,,,,,,,,,,,,,,,,,,,,,,,,,,,,,,,,,,,,,,,,,,,,,,,,,,,,,,,,,,,,,,,,,,,,,,,groceries,-117.2424181,32.8784043
node,3384976134,,,,,,,,,Roger's Place and Market,07:00-01:00,,,,,,,,,,convenience,,,,,,,,,,,,,,,,,,,,,,,,,,,,,,,,,,,,,,,,,,,,,,,,,,,,,,,,,,,,,,,,,,,,,,,,,,,,,,,,,,,,,,,,,,,,,,,,,,,,,,,,,,,,,,,,,,,,,,,,,,,,,,,,,,,,,,,,,,,,,,,,,,,,,,groceries,-117.2422571,32.8745838
node,3540328000,,,,,,,,,,,,,,,,,,,,convenience,,,,,,,,,,,,,,,,,,,,,,,,,,,,,,,,,,,,,,,,,,,,,,,,,,,,,,,,,,,,,,,,,,,,,,,,,,,,,,,,,,,,,,,,,,,,,,,,,,,,,,,,,,,,,,,,,,,,,,,,,,,,,,,,,,,,,,,,,,,,,,,,,,,,,,groceries,-117.2028809,32.7908252
